[
    {
        "icao": "SBAA",
        "iata": "CDJ",
        "name": "Aeroporto de Conceicao do Araguaia",
        "city": "Conceicao Do Araguaia",
        "state": "Pará",
        "elevation": 653,
        "lat": -8.3483495712,
        "lon": -49.3014984131,
        "tz": "America/Belem",
        "uf": "PA"
    },
    {
        "icao": "SBAQ",
        "iata": "AQA",
        "name": "Aeroporto de Araraquara",
        "city": "Araraquara",
        "state": "São Paulo",
        "elevation": 2334,
        "lat": -21.8120002747,
        "lon": -48.1329994202,
        "tz": "America/Sao_Paulo",
        "uf": "SP"
    },
    {
        "icao": "SBAR",
        "iata": "AJU",
        "name": "Aeroporto Santa Maria",
        "city": "Aracaju",
        "state": "Sergipe",
        "elevation": 23,
        "lat": -10.984000206,
        "lon": -37.0703010559,
        "tz": "America/Fortaleza",
        "uf": "SE"
    },
    {
        "icao": "SBAS",
        "iata": "AIF",
        "name": "Aeroporto Marcelo Pires Halzhausen",
        "city": "Assis",
        "state": "São Paulo",
        "elevation": 1850,
        "lat": -22.64,
        "lon": -50.453056,
        "tz": "America/Sao_Paulo",
        "uf": "SP"
    },
    {
        "icao": "SBAT",
        "iata": "AFL",
        "name": "Aeroporto de Alta Floresta",
        "city": "Alta Floresta",
        "state": "Mato Grosso",
        "elevation": 948,
        "lat": -9.8663892746,
        "lon": -56.1049995422,
        "tz": "America/Cuiaba",
        "uf": "MT"
    },
    {
        "icao": "SBAU",
        "iata": "ARU",
        "name": "Aeroporto de Aracatuba",
        "city": "Aracatuba",
        "state": "São Paulo",
        "elevation": 1361,
        "lat": -21.1413002014,
        "lon": -50.4247016907,
        "tz": "America/Sao_Paulo",
        "uf": "SP"
    },
    {
        "icao": "SBAX",
        "iata": "AAX",
        "name": "Aeroporto de Araxa",
        "city": "Araxa",
        "state": "Minas Gerais",
        "elevation": 3276,
        "lat": -19.5631999969,
        "lon": -46.9603996277,
        "tz": "America/Sao_Paulo",
        "uf": "MG"
    },
    {
        "icao": "SBBE",
        "iata": "BEL",
        "name": "Aeroporto Internacional Val de Cans - Julio Cezar Ribeiro",
        "city": "Belem",
        "state": "Pará",
        "elevation": 54,
        "lat": -1.3792500496,
        "lon": -48.4762992859,
        "tz": "America/Belem",
        "uf": "PA"
    },
    {
        "icao": "SBBG",
        "iata": "BGX",
        "name": "Aeroporto Comandante Gustavo Kraemer",
        "city": "Bage",
        "state": "Rio Grande do Sul",
        "elevation": 600,
        "lat": -31.390499115,
        "lon": -54.1122016907,
        "tz": "America/Sao_Paulo",
        "uf": "RS"
    },
    {
        "icao": "SBBH",
        "iata": "PLU",
        "name": "Aeroporto de Belo Horizonte/Pampulha - Carlos Drummond de Andrade",
        "city": "Belo Horizonte",
        "state": "Minas Gerais",
        "elevation": 2589,
        "lat": -19.8512001038,
        "lon": -43.9505996704,
        "tz": "America/Sao_Paulo",
        "uf": "MG"
    },
    {
        "icao": "SBBI",
        "iata": "BFH",
        "name": "Aeroporto de Bacacheri",
        "city": "Curitiba",
        "state": "Paraná",
        "elevation": 3057,
        "lat": -25.4050998688,
        "lon": -49.2319984436,
        "tz": "America/Sao_Paulo",
        "uf": "PR"
    },
    {
        "icao": "SBBP",
        "iata": "BJP",
        "name": "Aeroporto Estadual Arthur Siqueira",
        "city": "Braganca Paulista",
        "state": "São Paulo",
        "elevation": 2887,
        "lat": -22.979167,
        "lon": -46.5375,
        "tz": "America/Sao_Paulo",
        "uf": "SP"
    },
    {
        "icao": "SBBQ",
        "iata": "QAK",
        "name": "Aeroporto Major Brigadeiro Doorgal Borges",
        "city": "Barbacena",
        "state": "Minas Gerais",
        "elevation": 3657,
        "lat": -21.26720047,
        "lon": -43.761100769,
        "tz": "America/Sao_Paulo",
        "uf": "MG"
    },
    {
        "icao": "SBBR",
        "iata": "BSB",
        "name": "Aeroporto Internacional Presidente Juscelino Kubistschek",
        "city": "Brasilia",
        "state": "Distrito Federal",
        "elevation": 3497,
        "lat": -15.8691673279,
        "lon": -47.9208335876,
        "tz": "America/Sao_Paulo",
        "uf": "DF"
    },
    {
        "icao": "SBBT",
        "iata": "BAT",
        "name": "Aeroporto Chafei Amsei",
        "city": "Barretos",
        "state": "São Paulo",
        "elevation": 1898,
        "lat": -20.5844993591,
        "lon": -48.5941009521,
        "tz": "America/Sao_Paulo",
        "uf": "SP"
    },
    {
        "icao": "SBBU",
        "iata": "BAU",
        "name": "Aeroporto de Bauru",
        "city": "Bauru",
        "state": "São Paulo",
        "elevation": 2025,
        "lat": -22.3449993134,
        "lon": -49.0537986755,
        "tz": "America/Sao_Paulo",
        "uf": "SP"
    },
    {
        "icao": "SBBV",
        "iata": "BVB",
        "name": "Aeroporto Internacional de Boa Vista - Atlas Brasil Cantanhede",
        "city": "Boa Vista",
        "state": "Roraima",
        "elevation": 276,
        "lat": 2.8413889408,
        "lon": -60.6922225952,
        "tz": "America/Boa_Vista",
        "uf": "RR"
    },
    {
        "icao": "SBBW",
        "iata": "BPG",
        "name": "Aeroporto de Barra do Garcas",
        "city": "Barra Do Garcas",
        "state": "Mato Grosso",
        "elevation": 1147,
        "lat": -15.8613004684,
        "lon": -52.3889007568,
        "tz": "America/Campo_Grande",
        "uf": "MT"
    },
    {
        "icao": "SBBZ",
        "iata": "BZC",
        "name": "Aeroporto Umberto Modiano",
        "city": "Cabo Frio",
        "state": "Rio de Janeiro",
        "elevation": 10,
        "lat": -22.7709999084,
        "lon": -41.9628982544,
        "tz": "America/Sao_Paulo",
        "uf": "RJ"
    },
    {
        "icao": "SBCA",
        "iata": "CAC",
        "name": "Aeroporto de Cascavel",
        "city": "Cascavel",
        "state": "Paraná",
        "elevation": 2473,
        "lat": -25.0002994537,
        "lon": -53.5008010864,
        "tz": "America/Sao_Paulo",
        "uf": "PR"
    },
    {
        "icao": "SBCB",
        "iata": "CFB",
        "name": "Aeroporto de Cabo Frio",
        "city": "Cabo Frio",
        "state": "Rio de Janeiro",
        "elevation": 23,
        "lat": -22.9216995239,
        "lon": -42.0742988586,
        "tz": "America/Sao_Paulo",
        "uf": "RJ"
    },
    {
        "icao": "SBCF",
        "iata": "CNF",
        "name": "Aeroporto Internacional Tancredo Neves",
        "city": "Belo Horizonte",
        "state": "Minas Gerais",
        "elevation": 2715,
        "lat": -19.6244430542,
        "lon": -43.9719429016,
        "tz": "America/Sao_Paulo",
        "uf": "MG"
    },
    {
        "icao": "SBCG",
        "iata": "CGR",
        "name": "Aeroporto de Campo Grande",
        "city": "Campo Grande",
        "state": "Mato Grosso do Sul",
        "elevation": 1833,
        "lat": -20.4687004089,
        "lon": -54.6725006104,
        "tz": "America/Campo_Grande",
        "uf": "MS"
    },
    {
        "icao": "SBCH",
        "iata": "XAP",
        "name": "Aeroporto de Chapeco",
        "city": "Chapeco",
        "state": "Santa Catarina",
        "elevation": 2146,
        "lat": -27.1341991425,
        "lon": -52.6566009521,
        "tz": "America/Sao_Paulo",
        "uf": "SC"
    },
    {
        "icao": "SBCI",
        "iata": "CLN",
        "name": "Aeroporto Brig. Lysias Augusto Rodrigues",
        "city": "Carolina",
        "state": "Maranhão",
        "elevation": 565,
        "lat": -7.3204398155,
        "lon": -47.4586982727,
        "tz": "America/Araguaina",
        "uf": "MA"
    },
    {
        "icao": "SBCJ",
        "iata": "CKS",
        "name": "Aeroporto de Carajas",
        "city": "Carajas",
        "state": "Pará",
        "elevation": 2064,
        "lat": -6.1152777672,
        "lon": -50.0013885498,
        "tz": "America/Araguaina",
        "uf": "PA"
    },
    {
        "icao": "SBCM",
        "iata": "CCM",
        "name": "Aeroporto de Forquilhinha - Criciuma",
        "city": "Criciuma",
        "state": "Santa Catarina",
        "elevation": 93,
        "lat": -28.7244434357,
        "lon": -49.4213905334,
        "tz": "America/Sao_Paulo",
        "uf": "SC"
    },
    {
        "icao": "SBCN",
        "iata": "CLV",
        "name": "Aeroporto de Caldas Novas",
        "city": "Caldas Novas",
        "state": "Goiás",
        "elevation": 2247,
        "lat": -17.7252998352,
        "lon": -48.6074981689,
        "tz": "America/Sao_Paulo",
        "uf": "GO"
    },
    {
        "icao": "SBCO",
        "iata": "QNS",
        "name": "Base Aérea de Canoas",
        "city": "Porto Alegre",
        "state": "Rio Grande do Sul",
        "elevation": 26,
        "lat": -29.9458999634,
        "lon": -51.1444015503,
        "tz": "America/Sao_Paulo",
        "uf": "RS"
    },
    {
        "icao": "SBCP",
        "iata": "CAW",
        "name": "Aeroporto Bartolomeu Lisandro",
        "city": "Campos Dos Goytacazes",
        "state": "Rio de Janeiro",
        "elevation": 57,
        "lat": -21.698299408,
        "lon": -41.301700592,
        "tz": "America/Sao_Paulo",
        "uf": "RJ"
    },
    {
        "icao": "SBCR",
        "iata": "CMG",
        "name": "Aeroporto Internacional de Corumba",
        "city": "Corumba",
        "state": "Mato Grosso do Sul",
        "elevation": 461,
        "lat": -19.0119438171,
        "lon": -57.6713905334,
        "tz": "America/Campo_Grande",
        "uf": "MS"
    },
    {
        "icao": "SBCT",
        "iata": "CWB",
        "name": "Aeroporto Internacional Afonso Pena",
        "city": "Curitiba",
        "state": "Paraná",
        "elevation": 2988,
        "lat": -25.5284996033,
        "lon": -49.1758003235,
        "tz": "America/Sao_Paulo",
        "uf": "PR"
    },
    {
        "icao": "SBCV",
        "iata": "CRQ",
        "name": "Aeroporto de Caravelas",
        "city": "Caravelas",
        "state": "Bahia",
        "elevation": 36,
        "lat": -17.652299881,
        "lon": -39.2531013489,
        "tz": "America/Bahia",
        "uf": "BH"
    },
    {
        "icao": "SBCX",
        "iata": "CXJ",
        "name": "Aeroporto Campo dos Bugres",
        "city": "Caxias Do Sul",
        "state": "Rio Grande do Sul",
        "elevation": 2472,
        "lat": -29.1970996857,
        "lon": -51.1875,
        "tz": "America/Sao_Paulo",
        "uf": "RS"
    },
    {
        "icao": "SBCY",
        "iata": "CGB",
        "name": "Aeroporto Marechal Rondon",
        "city": "Cuiaba",
        "state": "Mato Grosso",
        "elevation": 617,
        "lat": -15.6528997421,
        "lon": -56.1166992188,
        "tz": "America/Cuiaba",
        "uf": "MT"
    },
    {
        "icao": "SBCZ",
        "iata": "CZS",
        "name": "Aeroporto de Cruzeiro do Sul",
        "city": "Cruzeiro Do Sul",
        "state": "Acre",
        "elevation": 637,
        "lat": -7.5999097824,
        "lon": -72.7695007324,
        "tz": "America/Eirunepe",
        "uf": "AC"
    },
    {
        "icao": "SBDN",
        "iata": "PPB",
        "name": "Aeroporto de Presidente Prudente",
        "city": "Presidente Prudente",
        "state": "São Paulo",
        "elevation": 1477,
        "lat": -22.1751003265,
        "lon": -51.4245986938,
        "tz": "America/Sao_Paulo",
        "uf": "SP"
    },
    {
        "icao": "SBEG",
        "iata": "MAO",
        "name": "Aeroporto Internacional Eduardo Gomes",
        "city": "Manaus",
        "state": "Amazonas",
        "elevation": 264,
        "lat": -3.0386099815,
        "lon": -60.0497016907,
        "tz": "America/Boa_Vista",
        "uf": "AM"
    },
    {
        "icao": "SBEK",
        "iata": "JCR",
        "name": "Aeroporto de Jacareacanga",
        "city": "Jacareacanga",
        "state": "Pará",
        "elevation": 323,
        "lat": -6.2331600189,
        "lon": -57.7769012451,
        "tz": "America/Santarem",
        "uf": "PA"
    },
    {
        "icao": "SBEP",
        "iata": "ESI",
        "name": "Aeroporto de Espinosa",
        "city": "Espinosa",
        "state": "Bahia",
        "elevation": 1900,
        "lat": -14.9336944444,
        "lon": -42.81,
        "tz": "America/Sao_Paulo",
        "uf": "BH"
    },
    {
        "icao": "SBFI",
        "iata": "IGU",
        "name": "Aeroporto Internacional de Foz do Iguaçu/Cataratas",
        "city": "Foz Do Iguacu",
        "state": "Paraná",
        "elevation": 786,
        "lat": -25.6002788544,
        "lon": -54.4850006104,
        "tz": "America/Sao_Paulo",
        "uf": "PR"
    },
    {
        "icao": "SBFL",
        "iata": "FLN",
        "name": "Aeroporto Internacional Hercilio Luz",
        "city": "Florianopolis",
        "state": "Santa Catarina",
        "elevation": 16,
        "lat": -27.6702785492,
        "lon": -48.5525016785,
        "tz": "America/Sao_Paulo",
        "uf": "SC"
    },
    {
        "icao": "SBFN",
        "iata": "FEN",
        "name": "Aeroporto de Fernando de Noronha",
        "city": "Fernando De Noronha",
        "state": "Pernambuco",
        "elevation": 193,
        "lat": -3.854929924,
        "lon": -32.4233016968,
        "tz": "America/Fortaleza",
        "uf": "PE"
    },
    {
        "icao": "SBFZ",
        "iata": "FOR",
        "name": "Aeroporto Internacional Pinto Martins",
        "city": "Fortaleza",
        "state": "Ceará",
        "elevation": 82,
        "lat": -3.7762799263,
        "lon": -38.5326004028,
        "tz": "America/Fortaleza",
        "uf": "CE"
    },
    {
        "icao": "SBGL",
        "iata": "GIG",
        "name": "Aeroporto Internacional do Rio de Janeiro-Galeão",
        "city": "Rio De Janeiro",
        "state": "Rio de Janeiro",
        "elevation": 28,
        "lat": -22.8099994659,
        "lon": -43.2505569458,
        "tz": "America/Sao_Paulo",
        "uf": "RJ"
    },
    {
        "icao": "SBGM",
        "iata": "GJM",
        "name": "Aeroporto de Guajara-Mirim",
        "city": "Guajara-Mirim",
        "state": "Rondônia",
        "elevation": 478,
        "lat": -10.7863998413,
        "lon": -65.2847976685,
        "tz": "America/Boa_Vista",
        "uf": "RO"
    },
    {
        "icao": "SBGO",
        "iata": "GYN",
        "name": "Aeroporto Santa Genoveva",
        "city": "Goiania",
        "state": "Goiás",
        "elevation": 2450,
        "lat": -16.6319999695,
        "lon": -49.2206993103,
        "tz": "America/Sao_Paulo",
        "uf": "GO"
    },
    {
        "icao": "SBGR",
        "iata": "GRU",
        "name": "Aeroporto Internacional de São Paulo/Guarulhos – Governador André Franco Montoro",
        "city": "Sao Paulo",
        "state": "São Paulo",
        "elevation": 2459,
        "lat": -23.4355564117,
        "lon": -46.4730567932,
        "tz": "America/Sao_Paulo",
        "uf": "SP"
    },
    {
        "icao": "SBGU",
        "iata": "GPB",
        "name": "Aeroporto Tancredo Thomas de Faria",
        "city": "Guarapuava",
        "state": "Paraná",
        "elevation": 3494,
        "lat": -25.3875007629,
        "lon": -51.520198822,
        "tz": "America/Sao_Paulo",
        "uf": "PR"
    },
    {
        "icao": "SBGV",
        "iata": "GVR",
        "name": "Aeroporto de Governador Valadares",
        "city": "Governador Valadares",
        "state": "Minas Gerais",
        "elevation": 561,
        "lat": -18.8952007294,
        "lon": -41.9822006226,
        "tz": "America/Sao_Paulo",
        "uf": "MG"
    },
    {
        "icao": "SBGW",
        "iata": "GUJ",
        "name": "Aeroporto de Guaratingueta",
        "city": "Guaratingueta",
        "state": "São Paulo",
        "elevation": 1761,
        "lat": -22.7915992737,
        "lon": -45.2047996521,
        "tz": "America/Sao_Paulo",
        "uf": "SP"
    },
    {
        "icao": "SBHT",
        "iata": "ATM",
        "name": "Aeroporto de Altamira",
        "city": "Altamira",
        "state": "Pará",
        "elevation": 369,
        "lat": -3.2539100647,
        "lon": -52.2540016174,
        "tz": "America/Santarem",
        "uf": "PA"
    },
    {
        "icao": "SBIC",
        "iata": "ITA",
        "name": "Aeroporto de Itacoatiara",
        "city": "Itacoatiara",
        "state": "Amazonas",
        "elevation": 142,
        "lat": -3.1272599697,
        "lon": -58.4812011719,
        "tz": "America/Boa_Vista",
        "uf": "AM"
    },
    {
        "icao": "SBIH",
        "iata": "ITB",
        "name": "Aeroporto de Itaituba",
        "city": "Itaituba",
        "state": "Pará",
        "elevation": 110,
        "lat": -4.2423400879,
        "lon": -56.0007019043,
        "tz": "America/Belem",
        "uf": "PA"
    },
    {
        "icao": "SBIL",
        "iata": "IOS",
        "name": "Aeroporto Jorge Amado",
        "city": "Ilheus",
        "state": "Bahia",
        "elevation": 15,
        "lat": -14.8159999847,
        "lon": -39.0331993103,
        "tz": "America/Bahia",
        "uf": "BH"
    },
    {
        "icao": "SBIP",
        "iata": "IPN",
        "name": "Aeroporto Regional do Vale do Aço",
        "city": "Ipatinga",
        "state": "Minas Gerais",
        "elevation": 784,
        "lat": -19.4706993103,
        "lon": -42.4875984192,
        "tz": "America/Sao_Paulo",
        "uf": "MG"
    },
    {
        "icao": "SBIZ",
        "iata": "IMP",
        "name": "Aeroporto Prefeito Renato Moreira",
        "city": "Imperatriz",
        "state": "Maranhão",
        "elevation": 432,
        "lat": -5.5312900543,
        "lon": -47.4599990845,
        "tz": "America/Fortaleza",
        "uf": "MA"
    },
    {
        "icao": "SBJF",
        "iata": "JDF",
        "name": "Aeroporto Francisco de Assis",
        "city": "Juiz De Fora",
        "state": "Minas Gerais",
        "elevation": 2989,
        "lat": -21.7915000916,
        "lon": -43.3867988586,
        "tz": "America/Sao_Paulo",
        "uf": "MG"
    },
    {
        "icao": "SBJP",
        "iata": "JPA",
        "name": "Aeroporto Presidente Castro Pinto",
        "city": "Joao Pessoa",
        "state": "Paraíba",
        "elevation": 217,
        "lat": -7.1458330154,
        "lon": -34.9486122131,
        "tz": "America/Fortaleza",
        "uf": "PB"
    },
    {
        "icao": "SBJU",
        "iata": "JDO",
        "name": "Aeroporto Orlando Bezerra de Menezes",
        "city": "Juazeiro Do Norte",
        "state": "Ceará",
        "elevation": 1392,
        "lat": -7.2189598084,
        "lon": -39.2700996399,
        "tz": "America/Fortaleza",
        "uf": "CE"
    },
    {
        "icao": "SBJV",
        "iata": "JOI",
        "name": "Aeroporto Lauro Carneiro de Loyola",
        "city": "Joinville",
        "state": "Santa Catarina",
        "elevation": 15,
        "lat": -26.2245006561,
        "lon": -48.7974014282,
        "tz": "America/Sao_Paulo",
        "uf": "SC"
    },
    {
        "icao": "SBKG",
        "iata": "CPV",
        "name": "Aeroporto Presidente Joao Suassuna",
        "city": "Campina Grande",
        "state": "Paraíba",
        "elevation": 1646,
        "lat": -7.2699198723,
        "lon": -35.8964004517,
        "tz": "America/Fortaleza",
        "uf": "PB"
    },
    {
        "icao": "SBKP",
        "iata": "VCP",
        "name": "Aeroporto Internacional de Viracopos-Campinas",
        "city": "Campinas",
        "state": "São Paulo",
        "elevation": 2170,
        "lat": -23.0074005127,
        "lon": -47.1344985962,
        "tz": "America/Sao_Paulo",
        "uf": "SP"
    },
    {
        "icao": "SBLE",
        "iata": "LEC",
        "name": "Aeroporto de Lençóis - Horacio de Mattos",
        "city": "Lencois",
        "state": "Bahia",
        "elevation": 1676,
        "lat": -12.4822998047,
        "lon": -41.2770004272,
        "tz": "America/Bahia",
        "uf": "BH"
    },
    {
        "icao": "SBLJ",
        "iata": "LAJ",
        "name": "Aeroporto de Lages",
        "city": "Lages",
        "state": "Santa Catarina",
        "elevation": 3065,
        "lat": -27.7821006775,
        "lon": -50.28150177,
        "tz": "America/Sao_Paulo",
        "uf": "SC"
    },
    {
        "icao": "SBLN",
        "iata": "LIP",
        "name": "Aeroporto de Lins",
        "city": "Lins",
        "state": "São Paulo",
        "elevation": 1559,
        "lat": -21.6639995575,
        "lon": -49.7304992676,
        "tz": "America/Sao_Paulo",
        "uf": "SP"
    },
    {
        "icao": "SBLO",
        "iata": "LDB",
        "name": "Aeroporto Governador Jose Richa",
        "city": "Londrina",
        "state": "Paraná",
        "elevation": 1867,
        "lat": -23.3335990906,
        "lon": -51.1301002502,
        "tz": "America/Sao_Paulo",
        "uf": "PR"
    },
    {
        "icao": "SBLP",
        "iata": "LAZ",
        "name": "Aeroporto de Bom Jesus da Lapa",
        "city": "Bom Jesus Da Lapa",
        "state": "Bahia",
        "elevation": 1454,
        "lat": -13.2621002197,
        "lon": -43.4081001282,
        "tz": "America/Bahia",
        "uf": "BH"
    },
    {
        "icao": "SBMA",
        "iata": "MAB",
        "name": "Aeroporto de Maraba",
        "city": "Maraba",
        "state": "Pará",
        "elevation": 357,
        "lat": -5.3685898781,
        "lon": -49.1380004883,
        "tz": "America/Araguaina",
        "uf": "PA"
    },
    {
        "icao": "SBMC",
        "iata": "MQH",
        "name": "Aeroporto de Minacu",
        "city": "Minacu",
        "state": "Goiás",
        "elevation": 1401,
        "lat": -13.5490999222,
        "lon": -48.1953010559,
        "tz": "America/Sao_Paulo",
        "uf": "GO"
    },
    {
        "icao": "SBMD",
        "iata": "MEU",
        "name": "Aeroporto de Monte Dourado - Serra do Areão",
        "city": "Almeirim",
        "state": "Pará",
        "elevation": 677,
        "lat": -0.8898389935,
        "lon": -52.6021995544,
        "tz": "America/Belem",
        "uf": "PA"
    },
    {
        "icao": "SBME",
        "iata": "MEA",
        "name": "Aeroporto de Macae",
        "city": "Macae",
        "state": "Rio de Janeiro",
        "elevation": 8,
        "lat": -22.343000412,
        "lon": -41.7659988403,
        "tz": "America/Sao_Paulo",
        "uf": "RJ"
    },
    {
        "icao": "SBMG",
        "iata": "MGF",
        "name": "Aeroporto Regional de Maringa - Silvio Nane Junior",
        "city": "Maringa",
        "state": "Paraná",
        "elevation": 1788,
        "lat": -23.4794445038,
        "lon": -52.01222229,
        "tz": "America/Sao_Paulo",
        "uf": "PR"
    },
    {
        "icao": "SBMK",
        "iata": "MOC",
        "name": "Aeroporto Mario Ribeiro",
        "city": "Montes Claros",
        "state": "Minas Gerais",
        "elevation": 2191,
        "lat": -16.7068996429,
        "lon": -43.818901062,
        "tz": "America/Sao_Paulo",
        "uf": "MG"
    },
    {
        "icao": "SBML",
        "iata": "MII",
        "name": "Aeroporto de Marilia",
        "city": "Marilia",
        "state": "São Paulo",
        "elevation": 2122,
        "lat": -22.1968994141,
        "lon": -49.926399231,
        "tz": "America/Sao_Paulo",
        "uf": "SP"
    },
    {
        "icao": "SBMN",
        "iata": "PLL",
        "name": "Base Aérea de Manaus",
        "city": "Manaus",
        "state": "Amazonas",
        "elevation": 267,
        "lat": -3.1460399628,
        "lon": -59.9863014221,
        "tz": "America/Manaus",
        "uf": "AM"
    },
    {
        "icao": "SBMO",
        "iata": "MCZ",
        "name": "Aeroporto Zumbi dos Palmares",
        "city": "Maceio",
        "state": "Alagoas",
        "elevation": 387,
        "lat": -9.5108098984,
        "lon": -35.7916984558,
        "tz": "America/Maceio",
        "uf": "AL"
    },
    {
        "icao": "SBMQ",
        "iata": "MCP",
        "name": "Aeroporto Alberto Alcolumbre",
        "city": "Macapa",
        "state": "Amapá",
        "elevation": 56,
        "lat": 0.0506640002,
        "lon": -51.0722007751,
        "tz": "America/Belem",
        "uf": "AP"
    },
    {
        "icao": "SBMS",
        "iata": "MVF",
        "name": "Aeroporto Dix-Sept Rosado",
        "city": "Mossoro",
        "state": "Rio Grande do Norte",
        "elevation": 76,
        "lat": -5.2019200325,
        "lon": -37.3642997742,
        "tz": "America/Fortaleza",
        "uf": "RN"
    },
    {
        "icao": "SBMT",
        "iata": "SAO",
        "name": "Aeroporto Campo de Marte",
        "city": "Sao Paulo",
        "state": "São Paulo",
        "elevation": 2368,
        "lat": -23.5090999603,
        "lon": -46.6377983093,
        "tz": "America/Sao_Paulo",
        "uf": "SP"
    },
    {
        "icao": "SBMY",
        "iata": "MNX",
        "name": "Aeroporto de Manicore",
        "city": "Manicore",
        "state": "Amazonas",
        "elevation": 174,
        "lat": -5.8113799095,
        "lon": -61.278301239,
        "tz": "America/Manaus",
        "uf": "AM"
    },
    {
        "icao": "SBNF",
        "iata": "NVT",
        "name": "Aeroporto Internacional de Navegantes - Ministro Victor Konder",
        "city": "Navegantes",
        "state": "Santa Catarina",
        "elevation": 18,
        "lat": -26.8799991608,
        "lon": -48.6514015198,
        "tz": "America/Sao_Paulo",
        "uf": "SC"
    },
    {
        "icao": "SBNM",
        "iata": "GEL",
        "name": "Aeroporto de Santo Angelo",
        "city": "Santo Angelo",
        "state": "Rio Grande do Sul",
        "elevation": 1056,
        "lat": -28.2817001343,
        "lon": -54.1691017151,
        "tz": "America/Sao_Paulo",
        "uf": "RS"
    },
    {
        "icao": "SBNT",
        "iata": "NAT",
        "name": "Aeroporto Augusto Severo",
        "city": "Natal",
        "state": "Rio Grande do Norte",
        "elevation": 169,
        "lat": -5.9114198685,
        "lon": -35.2476997375,
        "tz": "America/Recife",
        "uf": "RN"
    },
    {
        "icao": "SBOI",
        "iata": "OYK",
        "name": "Aeroporto de Oiapoque",
        "city": "Oiapoque",
        "state": "Amapá",
        "elevation": 63,
        "lat": 3.8554899693,
        "lon": -51.7969017029,
        "tz": "America/Cayenne",
        "uf": "AP"
    },
    {
        "icao": "SBPA",
        "iata": "POA",
        "name": "Aeroporto Internacional de Porto Alegre – Salgado Filho",
        "city": "Porto Alegre",
        "state": "Rio Grande do Sul",
        "elevation": 11,
        "lat": -29.9944000244,
        "lon": -51.1713981628,
        "tz": "America/Sao_Paulo",
        "uf": "RS"
    },
    {
        "icao": "SBPB",
        "iata": "PHB",
        "name": "Aeroporto Prefeito Doutor Joao Silva Filho",
        "city": "Parnaiba",
        "state": "Piauí",
        "elevation": 16,
        "lat": -2.8937499523,
        "lon": -41.7319984436,
        "tz": "America/Fortaleza",
        "uf": "PI"
    },
    {
        "icao": "SBPC",
        "iata": "POO",
        "name": "Aeroporto de Pocos de Caldas",
        "city": "Pocos De Caldas",
        "state": "Minas Gerais",
        "elevation": 4135,
        "lat": -21.843000412,
        "lon": -46.5679016113,
        "tz": "America/Sao_Paulo",
        "uf": "MG"
    },
    {
        "icao": "SBPF",
        "iata": "PFB",
        "name": "Aeroporto Lauro Kurtz",
        "city": "Passo Fundo",
        "state": "Rio Grande do Sul",
        "elevation": 2376,
        "lat": -28.2439994812,
        "lon": -52.3265991211,
        "tz": "America/Sao_Paulo",
        "uf": "RS"
    },
    {
        "icao": "SBPJ",
        "iata": "PMW",
        "name": "Aeroporto Brigadeiro Lysias Rodrigues",
        "city": "Palmas",
        "state": "Tocantins",
        "elevation": 774,
        "lat": -10.2915000916,
        "lon": -48.3569984436,
        "tz": "America/Araguaina",
        "uf": "TO"
    },
    {
        "icao": "SBPK",
        "iata": "PET",
        "name": "Aeroporto de Pelotas",
        "city": "Pelotas",
        "state": "Rio Grande do Sul",
        "elevation": 59,
        "lat": -31.7183990479,
        "lon": -52.3277015686,
        "tz": "America/Sao_Paulo",
        "uf": "RS"
    },
    {
        "icao": "SBPL",
        "iata": "PNZ",
        "name": "Aeroporto Senador Nilo Coelho",
        "city": "Petrolina",
        "state": "Pernambuco",
        "elevation": 1263,
        "lat": -9.3624095917,
        "lon": -40.5690994263,
        "tz": "America/Bahia",
        "uf": "PE"
    },
    {
        "icao": "SBPN",
        "iata": "PNB",
        "name": "Aeroporto de Porto Nacional",
        "city": "Porto Nacional",
        "state": "Tocantins",
        "elevation": 870,
        "lat": -10.7194004059,
        "lon": -48.3997001648,
        "tz": "America/Fortaleza",
        "uf": "TO"
    },
    {
        "icao": "SBPP",
        "iata": "PMG",
        "name": "Aeroporto de Ponta Pora",
        "city": "Ponta Pora",
        "state": "Mato Grosso do Sul",
        "elevation": 2156,
        "lat": -22.5496006012,
        "lon": -55.7025985718,
        "tz": "America/Campo_Grande",
        "uf": "MS"
    },
    {
        "icao": "SBPS",
        "iata": "BPS",
        "name": "Aeroporto de Porto Seguro",
        "city": "Porto Seguro",
        "state": "Bahia",
        "elevation": 168,
        "lat": -16.4386005402,
        "lon": -39.0808982849,
        "tz": "America/Bahia",
        "uf": "BH"
    },
    {
        "icao": "SBPV",
        "iata": "PVH",
        "name": "Aeroporto Governador Jorge Teixeira de Oliveira",
        "city": "Porto Velho",
        "state": "Rondônia",
        "elevation": 290,
        "lat": -8.7092895508,
        "lon": -63.9023017883,
        "tz": "America/Porto_Velho",
        "uf": "RO"
    },
    {
        "icao": "SBQV",
        "iata": "VDC",
        "name": "Aeroporto de Vitoria da Conquista",
        "city": "Vitoria Da Conquista",
        "state": "Bahia",
        "elevation": 3002,
        "lat": -14.8627996445,
        "lon": -40.8630981445,
        "tz": "America/Bahia",
        "uf": "BH"
    },
    {
        "icao": "SBRB",
        "iata": "RBR",
        "name": "Aeroporto Placido de Castro",
        "city": "Rio Branco",
        "state": "Acre",
        "elevation": 633,
        "lat": -9.868888855,
        "lon": -67.8980560303,
        "tz": "America/Rio_Branco",
        "uf": "AC"
    },
    {
        "icao": "SBRF",
        "iata": "REC",
        "name": "Aeroporto Internacional do Recife-Guararapes / Gilberto Freyre",
        "city": "Recife",
        "state": "Pernambuco",
        "elevation": 33,
        "lat": -8.1264896393,
        "lon": -34.9235992432,
        "tz": "America/Recife",
        "uf": "PE"
    },
    {
        "icao": "SBRJ",
        "iata": "SDU",
        "name": "Aeroporto Santos Dumont",
        "city": "Rio De Janeiro",
        "state": "Rio de Janeiro",
        "elevation": 11,
        "lat": -22.9104995728,
        "lon": -43.1631011963,
        "tz": "America/Sao_Paulo",
        "uf": "RJ"
    },
    {
        "icao": "SBRP",
        "iata": "RAO",
        "name": "Aeroporto Leite Lopes",
        "city": "Ribeirao Preto",
        "state": "São Paulo",
        "elevation": 1806,
        "lat": -21.1363887787,
        "lon": -47.7766685486,
        "tz": "America/Sao_Paulo",
        "uf": "SP"
    },
    {
        "icao": "SBRR",
        "iata": "BRB",
        "name": "Aeroporto de Barreirinhas",
        "city": "",
        "state": "Maranhão",
        "elevation": 40,
        "lat": -2.7555555556,
        "lon": -42.81,
        "tz": "America/Fortaleza",
        "uf": "MA"
    },
    {
        "icao": "SBSC",
        "iata": "SNZ",
        "name": "Base Aérea de Santa Cruz",
        "city": "Rio De Janeiro",
        "state": "Rio de Janeiro",
        "elevation": 10,
        "lat": -22.9323997498,
        "lon": -43.7191009521,
        "tz": "America/Sao_Paulo",
        "uf": "RJ"
    },
    {
        "icao": "SBSJ",
        "iata": "SJK",
        "name": "Aeroporto Professor Urbano Ernesto Stumpf",
        "city": "Sao Jose Dos Campos",
        "state": "São Paulo",
        "elevation": 2120,
        "lat": -23.2292003632,
        "lon": -45.8614997864,
        "tz": "America/Sao_Paulo",
        "uf": "SP"
    },
    {
        "icao": "SBSL",
        "iata": "SLZ",
        "name": "Aeroporto Internacional Marechal Cunha Machado",
        "city": "Sao Luis",
        "state": "Maranhão",
        "elevation": 178,
        "lat": -2.5853600502,
        "lon": -44.2341003418,
        "tz": "America/Fortaleza",
        "uf": "MA"
    },
    {
        "icao": "SBSM",
        "iata": "RIA",
        "name": "Aeroporto de Santa Maria",
        "city": "Santa Maria",
        "state": "Rio Grande do Sul",
        "elevation": 287,
        "lat": -29.7113990784,
        "lon": -53.6882019043,
        "tz": "America/Sao_Paulo",
        "uf": "RS"
    },
    {
        "icao": "SBSN",
        "iata": "STM",
        "name": "Aeroporto Maestro Wilson Fonseca",
        "city": "Santarem",
        "state": "Pará",
        "elevation": 198,
        "lat": -2.4247219563,
        "lon": -54.7858314514,
        "tz": "America/Belem",
        "uf": "PA"
    },
    {
        "icao": "SBSP",
        "iata": "CGH",
        "name": "Aeroporto de São Paulo/Congonhas - Deputado Freitas Nobre",
        "city": "Sao Paulo",
        "state": "São Paulo",
        "elevation": 2631,
        "lat": -23.6261100769,
        "lon": -46.6563873291,
        "tz": "America/Sao_Paulo",
        "uf": "SP"
    },
    {
        "icao": "SBSR",
        "iata": "SJP",
        "name": "Aeroporto de Sao Jose do Rio Preto",
        "city": "Sao Jose Do Rio Preto",
        "state": "São Paulo",
        "elevation": 1784,
        "lat": -20.8166007996,
        "lon": -49.40650177,
        "tz": "America/Sao_Paulo",
        "uf": "SP"
    },
    {
        "icao": "SBST",
        "iata": "SSZ",
        "name": "Base Aérea de Santos",
        "city": "Guaruja",
        "state": "São Paulo",
        "elevation": 10,
        "lat": -23.9280567169,
        "lon": -46.2997207642,
        "tz": "America/Sao_Paulo",
        "uf": "SP"
    },
    {
        "icao": "SBSV",
        "iata": "SSA",
        "name": "Aeroporto Internacional Deputado Luiz Eduardo Magalhaes",
        "city": "Salvador",
        "state": "Bahia",
        "elevation": 64,
        "lat": -12.9086112976,
        "lon": -38.3224983215,
        "tz": "America/Bahia",
        "uf": "BH"
    },
    {
        "icao": "SBTA",
        "iata": "QHP",
        "name": "Base de Aviação de Taubaté",
        "city": "Taubate",
        "state": "São Paulo",
        "elevation": 1908,
        "lat": -23.0401000977,
        "lon": -45.5159988403,
        "tz": "America/Sao_Paulo",
        "uf": "SP"
    },
    {
        "icao": "SBTB",
        "iata": "TMT",
        "name": "Aeroporto de Trombetas - Porto Trombetas",
        "city": "Oriximina",
        "state": "Pará",
        "elevation": 287,
        "lat": -1.4895999432,
        "lon": -56.3968009949,
        "tz": "America/Belem",
        "uf": "PA"
    },
    {
        "icao": "SBTC",
        "iata": "UNA",
        "name": "Aeroporto de Una-Comandatuba",
        "city": "Una",
        "state": "Bahia",
        "elevation": 20,
        "lat": -15.3551998138,
        "lon": -38.9990005493,
        "tz": "America/Bahia",
        "uf": "BH"
    },
    {
        "icao": "SBTD",
        "iata": "TOW",
        "name": "Aeroporto de Toledo",
        "city": "Toledo",
        "state": "Paraná",
        "elevation": 1843,
        "lat": -24.6863002777,
        "lon": -53.6974983215,
        "tz": "America/Sao_Paulo",
        "uf": "PR"
    },
    {
        "icao": "SBTE",
        "iata": "THE",
        "name": "Aeroporto Senador Petronio Portela",
        "city": "Teresina",
        "state": "Piauí",
        "elevation": 219,
        "lat": -5.0599398613,
        "lon": -42.8235015869,
        "tz": "America/Fortaleza",
        "uf": "PI"
    },
    {
        "icao": "SBTF",
        "iata": "TFF",
        "name": "Aeroporto de Tefe",
        "city": "Tefe",
        "state": "Amazonas",
        "elevation": 188,
        "lat": -3.3829400539,
        "lon": -64.7240982056,
        "tz": "America/Boa_Vista",
        "uf": "AM"
    },
    {
        "icao": "SBTG",
        "iata": "TJL",
        "name": "Aeroporto Plinio Alarcom",
        "city": "Tres Lagoas",
        "state": "São Paulo",
        "elevation": 1075,
        "lat": -20.754444,
        "lon": -51.683889,
        "tz": "America/Campo_Grande",
        "uf": "SP"
    },
    {
        "icao": "SBTK",
        "iata": "TRQ",
        "name": "Aeroporto de Tarauaca",
        "city": "Tarauaca",
        "state": "Acre",
        "elevation": 646,
        "lat": -8.1552600861,
        "lon": -70.7833023071,
        "tz": "America/Rio_Branco",
        "uf": "AC"
    },
    {
        "icao": "SBTL",
        "iata": "TEC",
        "name": "Aeroporto de Telemaco Borba",
        "city": "Telemaco Borba",
        "state": "Paraná",
        "elevation": 2610,
        "lat": -24.3178005219,
        "lon": -50.651599884,
        "tz": "America/Sao_Paulo",
        "uf": "PR"
    },
    {
        "icao": "SBTT",
        "iata": "TBT",
        "name": "Aeroporto de Tabatinga",
        "city": "Tabatinga",
        "state": "Amazonas",
        "elevation": 279,
        "lat": -4.2556700706,
        "lon": -69.935798645,
        "tz": "America/Porto_Velho",
        "uf": "AM"
    },
    {
        "icao": "SBTU",
        "iata": "TUR",
        "name": "Aeroporto de Tucurui",
        "city": "Tucurui",
        "state": "Pará",
        "elevation": 830,
        "lat": -3.7860100269,
        "lon": -49.7202987671,
        "tz": "America/Belem",
        "uf": "PA"
    },
    {
        "icao": "SBUA",
        "iata": "SJL",
        "name": "Aeroporto de Sao Gabriel da Cachoeira",
        "city": "Sao Gabriel Da Cachoeira",
        "state": "Amazonas",
        "elevation": 251,
        "lat": -0.14835,
        "lon": -66.9855,
        "tz": "America/Boa_Vista",
        "uf": "AM"
    },
    {
        "icao": "SBUF",
        "iata": "PAV",
        "name": "Aeroporto de Paulo Afonso",
        "city": "Paulo Afonso",
        "state": "Bahia",
        "elevation": 883,
        "lat": -9.4008798599,
        "lon": -38.2505989075,
        "tz": "America/Maceio",
        "uf": "BH"
    },
    {
        "icao": "SBUG",
        "iata": "URG",
        "name": "Aeroporto Rubem Berta",
        "city": "Uruguaiana",
        "state": "Rio Grande do Sul",
        "elevation": 256,
        "lat": -29.7821998596,
        "lon": -57.0382003784,
        "tz": "America/Sao_Paulo",
        "uf": "RS"
    },
    {
        "icao": "SBUL",
        "iata": "UDI",
        "name": "Aeroporto Ten. Cel. Aviador Cesar Bombonato",
        "city": "Uberlandia",
        "state": "Minas Gerais",
        "elevation": 3094,
        "lat": -18.8836116791,
        "lon": -48.225276947,
        "tz": "America/Sao_Paulo",
        "uf": "MG"
    },
    {
        "icao": "SBUR",
        "iata": "UBA",
        "name": "Aeroporto Mario de Almeida Franco",
        "city": "Uberaba",
        "state": "Minas Gerais",
        "elevation": 2655,
        "lat": -19.7647228241,
        "lon": -47.9661102295,
        "tz": "America/Sao_Paulo",
        "uf": "MG"
    },
    {
        "icao": "SBVG",
        "iata": "VAG",
        "name": "Aeroporto Major Brigadeiro Trompowsky",
        "city": "Varginha",
        "state": "Minas Gerais",
        "elevation": 3025,
        "lat": -21.5900993347,
        "lon": -45.4733009338,
        "tz": "America/Sao_Paulo",
        "uf": "MG"
    },
    {
        "icao": "SBVH",
        "iata": "BVH",
        "name": "Aeroporto de Vilhena",
        "city": "Vilhena",
        "state": "Rondônia",
        "elevation": 2018,
        "lat": -12.6943998337,
        "lon": -60.0983009338,
        "tz": "America/Boa_Vista",
        "uf": "RO"
    },
    {
        "icao": "SBVT",
        "iata": "VIX",
        "name": "Aeroporto Eurico de Aguiar Salles",
        "city": "Vitoria",
        "state": "Espírito Santo",
        "elevation": 11,
        "lat": -20.2580566406,
        "lon": -40.2863883972,
        "tz": "America/Sao_Paulo",
        "uf": "ES"
    },
    {
        "icao": "SBYS",
        "iata": "QPS",
        "name": "Aeroporto Campo Fontenelle",
        "city": "Pirassununga",
        "state": "São Paulo",
        "elevation": 1968,
        "lat": -21.9846000671,
        "lon": -47.3348007202,
        "tz": "America/Sao_Paulo",
        "uf": "SP"
    },
    {
        "icao": "SBZM",
        "iata": "IZA",
        "name": "Aeroporto Presidente Itamar Franco",
        "city": "Juiz De Fora",
        "state": "Minas Gerais",
        "elevation": 1348,
        "lat": -21.5130558014,
        "lon": -43.1730575562,
        "tz": "America/Sao_Paulo",
        "uf": "MG"
    },
    {
        "icao": "SDAM",
        "iata": "CPQ",
        "name": "Aeroporto Estadual Campo dos Amarais",
        "city": "Campinas",
        "state": "São Paulo",
        "elevation": 2008,
        "lat": -22.8591995239,
        "lon": -47.1082000732,
        "tz": "America/Sao_Paulo",
        "uf": "SP"
    },
    {
        "icao": "SDBK",
        "iata": "QCJ",
        "name": "Aeroporto de Botucatu",
        "city": "Botucatu",
        "state": "São Paulo",
        "elevation": 3012,
        "lat": -22.9395008087,
        "lon": -48.4679985046,
        "tz": "America/Sao_Paulo",
        "uf": "SP"
    },
    {
        "icao": "SDCG",
        "iata": "OLC",
        "name": "Aeroporto Senadora Eunice Micheles",
        "city": "Sao Paulo De Olivenca",
        "state": "Amazonas",
        "elevation": 335,
        "lat": -3.4679295077,
        "lon": -68.9204120636,
        "tz": "America/Manaus",
        "uf": "AM"
    },
    {
        "icao": "SDCO",
        "iata": "SOD",
        "name": "Aeroporto de Sorocaba",
        "city": "Sorocaba",
        "state": "São Paulo",
        "elevation": 2077,
        "lat": -23.4780006409,
        "lon": -47.4900016785,
        "tz": "America/Sao_Paulo",
        "uf": "SP"
    },
    {
        "icao": "SDDR",
        "iata": "QDC",
        "name": "Aeroporto de Dracena",
        "city": "Dracena",
        "state": "São Paulo",
        "elevation": 1220,
        "lat": -21.4605007172,
        "lon": -51.6068992615,
        "tz": "America/Sao_Paulo",
        "uf": "SP"
    },
    {
        "icao": "SDJL",
        "iata": "JLS",
        "name": "Aeroporto de Jales",
        "city": "Jales",
        "state": "São Paulo",
        "elevation": 1496,
        "lat": -20.2929992676,
        "lon": -50.5463981628,
        "tz": "America/Sao_Paulo",
        "uf": "SP"
    },
    {
        "icao": "SDKK",
        "iata": "QOA",
        "name": "Aeroporto de Mococa",
        "city": "Mococa",
        "state": "São Paulo",
        "elevation": 2116,
        "lat": -21.4878005981,
        "lon": -47.0344009399,
        "tz": "America/Sao_Paulo",
        "uf": "SP"
    },
    {
        "icao": "SDLP",
        "iata": "QGC",
        "name": "Aeroporto de Lencois Paulista",
        "city": "Lencois Paulista",
        "state": "São Paulo",
        "elevation": 2039,
        "lat": -22.5783996582,
        "lon": -48.7746009827,
        "tz": "America/Sao_Paulo",
        "uf": "SP"
    },
    {
        "icao": "SDNY",
        "iata": "QNV",
        "name": "Aeroclube de Nova Iguaçu",
        "city": "Nova Iguacu",
        "state": "Rio de Janeiro",
        "elevation": 164,
        "lat": -22.745300293,
        "lon": -43.4603004456,
        "tz": "America/Sao_Paulo",
        "uf": "RJ"
    },
    {
        "icao": "SDOU",
        "iata": "OUS",
        "name": "Aeroporto de Ourinhos",
        "city": "Ourinhos",
        "state": "São Paulo",
        "elevation": 1532,
        "lat": -22.9664993286,
        "lon": -49.9132995605,
        "tz": "America/Sao_Paulo",
        "uf": "SP"
    },
    {
        "icao": "SDPW",
        "iata": "QHB",
        "name": "Aeroporto de Piracicaba",
        "city": "Piracicaba",
        "state": "São Paulo",
        "elevation": 1887,
        "lat": -22.7115001678,
        "lon": -47.6181983948,
        "tz": "America/Sao_Paulo",
        "uf": "SP"
    },
    {
        "icao": "SDRK",
        "iata": "QIQ",
        "name": "Aeroporto de Rio Claro",
        "city": "Rio Claro",
        "state": "São Paulo",
        "elevation": 1991,
        "lat": -22.4311008453,
        "lon": -47.564201355,
        "tz": "America/Sao_Paulo",
        "uf": "SP"
    },
    {
        "icao": "SDRR",
        "iata": "QVP",
        "name": "Aeroporto de Avare-Arandu",
        "city": "Avare",
        "state": "São Paulo",
        "elevation": 2657,
        "lat": -23.0925006866,
        "lon": -48.9874000549,
        "tz": "America/Sao_Paulo",
        "uf": "SP"
    },
    {
        "icao": "SDRS",
        "iata": "QRZ",
        "name": "Aeroporto de Resende",
        "city": "Resende",
        "state": "Rio de Janeiro",
        "elevation": 1320,
        "lat": -22.4785003662,
        "lon": -44.4803009033,
        "tz": "America/Sao_Paulo",
        "uf": "RJ"
    },
    {
        "icao": "SDSC",
        "iata": "QSC",
        "name": "Aeroporto de Sao Carlos",
        "city": "Sao Carlos",
        "state": "São Paulo",
        "elevation": 2649,
        "lat": -21.8754005432,
        "lon": -47.9037017822,
        "tz": "America/Sao_Paulo",
        "uf": "SP"
    },
    {
        "icao": "SDUB",
        "iata": "UBT",
        "name": "Aeroporto de Ubatuba",
        "city": "Ubatuba",
        "state": "São Paulo",
        "elevation": 13,
        "lat": -23.4410991669,
        "lon": -45.0755996704,
        "tz": "America/Sao_Paulo",
        "uf": "SP"
    },
    {
        "icao": "SDUO",
        "iata": "QGS",
        "name": "Aeroporto de Alagoinhas",
        "city": "Alagoinhas",
        "state": "Bahia",
        "elevation": 568,
        "lat": -12.1751003265,
        "lon": -38.3801994324,
        "tz": "America/Bahia",
        "uf": "BH"
    },
    {
        "icao": "SDVG",
        "iata": "VOT",
        "name": "Aeroporto de Votuporanga",
        "city": "Votuporanga",
        "state": "São Paulo",
        "elevation": 1667,
        "lat": -20.4631996155,
        "lon": -50.0045013428,
        "tz": "America/Sao_Paulo",
        "uf": "SP"
    },
    {
        "icao": "SDYM",
        "iata": "QGB",
        "name": "Aeroporto de Limeira",
        "city": "Limeira",
        "state": "São Paulo",
        "elevation": 2172,
        "lat": -22.603889,
        "lon": -47.411944,
        "tz": "America/Sao_Paulo",
        "uf": "SP"
    },
    {
        "icao": "SILC",
        "iata": "LVR",
        "name": "Aeroporto Municipal Bom Futuro",
        "city": "Lucas do Rio Verde",
        "state": "Mato Grosso",
        "elevation": 1345,
        "lat": -13.0378611111,
        "lon": -55.95025,
        "tz": "America/Cuiaba",
        "uf": "MT"
    },
    {
        "icao": "SIMK",
        "iata": "FRC",
        "name": "Aeroporto de Franca",
        "city": "Franca",
        "state": "São Paulo",
        "elevation": 3292,
        "lat": -20.5921993256,
        "lon": -47.382900238,
        "tz": "America/Sao_Paulo",
        "uf": "SP"
    },
    {
        "icao": "SJHG",
        "iata": "CFO",
        "name": "Aeroporto de Confresa",
        "city": "Confresa",
        "state": "Mato Grosso",
        "elevation": 781,
        "lat": -10.6344003677,
        "lon": -51.5635986328,
        "tz": "America/Campo_Grande",
        "uf": "MT"
    },
    {
        "icao": "SJRG",
        "iata": "RIG",
        "name": "Aeroporto de Rio Grande",
        "city": "Rio Grande",
        "state": "Rio Grande do Sul",
        "elevation": 27,
        "lat": -32.081699,
        "lon": -52.163299,
        "tz": "America/Sao_Paulo",
        "uf": "RS"
    },
    {
        "icao": "SNAI",
        "iata": "APY",
        "name": "Aeroporto de Alto Parnaiba",
        "city": "Alto Parnaiba",
        "state": "Maranhão",
        "elevation": 968,
        "lat": -9.0836105347,
        "lon": -45.9505577087,
        "tz": "America/Fortaleza",
        "uf": "MA"
    },
    {
        "icao": "SNAL",
        "iata": "APQ",
        "name": "Aeroporto de Arapiraca",
        "city": "Arapiraca",
        "state": "Alagoas",
        "elevation": 886,
        "lat": -9.7753601074,
        "lon": -36.6291999817,
        "tz": "America/Maceio",
        "uf": "AL"
    },
    {
        "icao": "SNAR",
        "iata": "AMJ",
        "name": "Aeroporto Cirilo Queiroz",
        "city": "Almenara",
        "state": "Minas Gerais",
        "elevation": 640,
        "lat": -16.18389,
        "lon": -40.66722,
        "tz": "America/Sao_Paulo",
        "uf": "MG"
    },
    {
        "icao": "SNBC",
        "iata": "BDC",
        "name": "Aeroporto de Barra do Corda",
        "city": "Barra Do Corda",
        "state": "Maranhão",
        "elevation": 509,
        "lat": -5.5025,
        "lon": -45.215833,
        "tz": "America/Fortaleza",
        "uf": "MA"
    },
    {
        "icao": "SNBL",
        "iata": "BVM",
        "name": "Aeroporto de Belmonte",
        "city": "Belmonte",
        "state": "Bahia",
        "elevation": 33,
        "lat": -15.8717002869,
        "lon": -38.8718986511,
        "tz": "America/Bahia",
        "uf": "BH"
    },
    {
        "icao": "SNBR",
        "iata": "BRA",
        "name": "Aeroporto de Barreiras",
        "city": "Barreiras",
        "state": "Bahia",
        "elevation": 2447,
        "lat": -12.0789003372,
        "lon": -45.0089988708,
        "tz": "America/Fortaleza",
        "uf": "BH"
    },
    {
        "icao": "SNBS",
        "iata": "BSS",
        "name": "Aeroporto de Balsas",
        "city": "Balsas",
        "state": "Maranhão",
        "elevation": 930,
        "lat": -7.5260300636,
        "lon": -46.0532989502,
        "tz": "America/Fortaleza",
        "uf": "MA"
    },
    {
        "icao": "SNBU",
        "iata": "BMS",
        "name": "Aeroporto Socrates Mariani Bittencourt",
        "city": "Brumado",
        "state": "Bahia",
        "elevation": 1673,
        "lat": -14.255399704,
        "lon": -41.8175010681,
        "tz": "America/Bahia",
        "uf": "BH"
    },
    {
        "icao": "SNBX",
        "iata": "BQQ",
        "name": "Aeroporto de Barra",
        "city": "Barra",
        "state": "Bahia",
        "elevation": 1345,
        "lat": -11.0808000565,
        "lon": -43.1474990845,
        "tz": "America/Bahia",
        "uf": "BH"
    },
    {
        "icao": "SNCP",
        "iata": "CTP",
        "name": "Aeroporto de Carutapera",
        "city": "Carutapera",
        "state": "Maranhão",
        "elevation": 85,
        "lat": -1.2502779961,
        "lon": -46.0172233582,
        "tz": "America/Fortaleza",
        "uf": "MA"
    },
    {
        "icao": "SNCU",
        "iata": "CPU",
        "name": "Aeroporto de Cururupu",
        "city": "Cururupu",
        "state": "Maranhão",
        "elevation": 39,
        "lat": -1.821111,
        "lon": -44.866944,
        "tz": "America/Fortaleza",
        "uf": "MA"
    },
    {
        "icao": "SNCX",
        "iata": "QCH",
        "name": "Aeroporto de Colatina",
        "city": "Colatina",
        "state": "Espírito Santo",
        "elevation": 492,
        "lat": -19.4869995117,
        "lon": -40.5793991089,
        "tz": "America/Sao_Paulo",
        "uf": "ES"
    },
    {
        "icao": "SNDC",
        "iata": "RDC",
        "name": "Aeroporto de Redencao",
        "city": "Redencao",
        "state": "Pará",
        "elevation": 670,
        "lat": -8.0332899094,
        "lon": -49.9799003601,
        "tz": "America/Belem",
        "uf": "PA"
    },
    {
        "icao": "SNDN",
        "iata": "LEP",
        "name": "Aeroporto de Leopoldina",
        "city": "Leopoldina",
        "state": "Minas Gerais",
        "elevation": 919,
        "lat": -21.4661006927,
        "lon": -42.7270011902,
        "tz": "America/Sao_Paulo",
        "uf": "MG"
    },
    {
        "icao": "SNDT",
        "iata": "DTI",
        "name": "Aeroporto de Diamantina",
        "city": "Diamantina",
        "state": "Minas Gerais",
        "elevation": 4446,
        "lat": -18.232000351,
        "lon": -43.6503982544,
        "tz": "America/Sao_Paulo",
        "uf": "MG"
    },
    {
        "icao": "SNDV",
        "iata": "DIQ",
        "name": "Aeroporto de Divinopolis",
        "city": "Divinopolis",
        "state": "Minas Gerais",
        "elevation": 2608,
        "lat": -20.1807003021,
        "lon": -44.8708992004,
        "tz": "America/Sao_Paulo",
        "uf": "MG"
    },
    {
        "icao": "SNED",
        "iata": "CNV",
        "name": "Aeroporto de Canavieiras",
        "city": "Canavieiras",
        "state": "Bahia",
        "elevation": 19,
        "lat": -15.6669998169,
        "lon": -38.95470047,
        "tz": "America/Bahia",
        "uf": "BH"
    },
    {
        "icao": "SNFX",
        "iata": "SXX",
        "name": "Aeroporto de Sao Felix do Xingu",
        "city": "Sao Felix Do Xingu",
        "state": "Pará",
        "elevation": 656,
        "lat": -6.6402778625,
        "lon": -51.9900016785,
        "tz": "America/Belem",
        "uf": "PA"
    },
    {
        "icao": "SNGA",
        "iata": "GUZ",
        "name": "Aeroporto de Guarapari",
        "city": "Guarapari",
        "state": "Espírito Santo",
        "elevation": 28,
        "lat": -20.6464996338,
        "lon": -40.4919013977,
        "tz": "America/Sao_Paulo",
        "uf": "ES"
    },
    {
        "icao": "SNGD",
        "iata": "GDP",
        "name": "Aeroporto de Guadalupe",
        "city": "Guadalupe",
        "state": "Piauí",
        "elevation": 564,
        "lat": -6.7822198868,
        "lon": -43.5821990967,
        "tz": "America/Fortaleza",
        "uf": "PI"
    },
    {
        "icao": "SNGI",
        "iata": "GNM",
        "name": "Aeroporto de Guanambi",
        "city": "Guanambi",
        "state": "Bahia",
        "elevation": 1815,
        "lat": -14.2082004547,
        "lon": -42.7461013794,
        "tz": "America/Fortaleza",
        "uf": "BH"
    },
    {
        "icao": "SNGM",
        "iata": "GMS",
        "name": "Aeroporto Fazenda Canada",
        "city": "Uberlandia",
        "state": "Minas Gerais",
        "elevation": 2624,
        "lat": -18.8624992371,
        "lon": -48.4152793884,
        "tz": "America/Sao_Paulo",
        "uf": "MG"
    },
    {
        "icao": "SNGN",
        "iata": "QGP",
        "name": "Aeroporto de Garanhuns",
        "city": "Garanhuns",
        "state": "Pernambuco",
        "elevation": 2533,
        "lat": -8.834280014,
        "lon": -36.4715995789,
        "tz": "America/Recife",
        "uf": "PE"
    },
    {
        "icao": "SNIC",
        "iata": "IRE",
        "name": "Aeroporto de Irece",
        "city": "Irece",
        "state": "Bahia",
        "elevation": 2561,
        "lat": -11.3399000168,
        "lon": -41.8470001221,
        "tz": "America/Bahia",
        "uf": "BH"
    },
    {
        "icao": "SNIG",
        "iata": "QIG",
        "name": "Aeroporto de Iguatu",
        "city": "Iguatu",
        "state": "Ceará",
        "elevation": 699,
        "lat": -6.34664011,
        "lon": -39.293800354,
        "tz": "America/Fortaleza",
        "uf": "CE"
    },
    {
        "icao": "SNIP",
        "iata": "QIT",
        "name": "Aeroporto de Itapetinga",
        "city": "Itapetinga",
        "state": "Bahia",
        "elevation": 915,
        "lat": -15.2445001602,
        "lon": -40.2771987915,
        "tz": "America/Bahia",
        "uf": "BH"
    },
    {
        "icao": "SNIU",
        "iata": "IPU",
        "name": "Aeroporto de Ipiau",
        "city": "Ipiau",
        "state": "Bahia",
        "elevation": 492,
        "lat": -14.1338891983,
        "lon": -39.7338905334,
        "tz": "America/Bahia",
        "uf": "BH"
    },
    {
        "icao": "SNJB",
        "iata": "JCM",
        "name": "Aeroporto de Jacobina",
        "city": "Jacobina",
        "state": "Bahia",
        "elevation": 1640,
        "lat": -11.1632003784,
        "lon": -40.5531005859,
        "tz": "America/Bahia",
        "uf": "BH"
    },
    {
        "icao": "SNJD",
        "iata": "FEC",
        "name": "Aeroporto Joao Durval Carneiro",
        "city": "Feira De Santana",
        "state": "Bahia",
        "elevation": 768,
        "lat": -12.2003002167,
        "lon": -38.9067993164,
        "tz": "America/Bahia",
        "uf": "BH"
    },
    {
        "icao": "SNJK",
        "iata": "JEQ",
        "name": "Aeroporto de Jequie",
        "city": "Jequie",
        "state": "Bahia",
        "elevation": 646,
        "lat": -13.877699852,
        "lon": -40.0716018677,
        "tz": "America/Bahia",
        "uf": "BH"
    },
    {
        "icao": "SNJN",
        "iata": "JNA",
        "name": "Aeroporto de Januaria",
        "city": "Januaria",
        "state": "Minas Gerais",
        "elevation": 1575,
        "lat": -15.4737997055,
        "lon": -44.3855018616,
        "tz": "America/Sao_Paulo",
        "uf": "MG"
    },
    {
        "icao": "SNJR",
        "iata": "JDR",
        "name": "Aeroporto Prefeito Octavio de Almeida Neves",
        "city": "Sao Joao Del Rei",
        "state": "Minas Gerais",
        "elevation": 3117,
        "lat": -21.0849990845,
        "lon": -44.2247238159,
        "tz": "America/Sao_Paulo",
        "uf": "MG"
    },
    {
        "icao": "SNKE",
        "iata": "CMP",
        "name": "Aeroporto de Santana do Araguaia",
        "city": "Santana Do Araguaia",
        "state": "Pará",
        "elevation": 597,
        "lat": -9.3199701309,
        "lon": -50.3284988403,
        "tz": "America/Belem",
        "uf": "PA"
    },
    {
        "icao": "SNKF",
        "iata": "QDF",
        "name": "Aeroporto de Conselheiro Lafaiete",
        "city": "Conselheiro Lafaiete",
        "state": "Minas Gerais",
        "elevation": 3478,
        "lat": -20.7385997772,
        "lon": -43.7974014282,
        "tz": "America/Sao_Paulo",
        "uf": "MG"
    },
    {
        "icao": "SNKI",
        "iata": "CDI",
        "name": "Aeroporto de Cachoeiro do Itapemirim",
        "city": "Cachoeiro Do Itapemirim",
        "state": "Espírito Santo",
        "elevation": 335,
        "lat": -20.8342990875,
        "lon": -41.1856002808,
        "tz": "America/Sao_Paulo",
        "uf": "ES"
    },
    {
        "icao": "SNKN",
        "iata": "QCP",
        "name": "Aeroporto de Currais Novos",
        "city": "Currais Novos",
        "state": "Rio Grande do Norte",
        "elevation": 1148,
        "lat": -6.2808327675,
        "lon": -36.5402793884,
        "tz": "America/Recife",
        "uf": "RN"
    },
    {
        "icao": "SNLB",
        "iata": "LVB",
        "name": "Aeroporto de Livramento do Brumado",
        "city": "Livramento Do Brumado",
        "state": "Bahia",
        "elevation": 1559,
        "lat": -13.6506004333,
        "lon": -41.8339004517,
        "tz": "America/Bahia",
        "uf": "BH"
    },
    {
        "icao": "SNLO",
        "iata": "SSO",
        "name": "Aeroporto de Sao Lourenco",
        "city": "Sao Lourenco",
        "state": "Minas Gerais",
        "elevation": 2871,
        "lat": -22.0909004211,
        "lon": -45.0444984436,
        "tz": "America/Sao_Paulo",
        "uf": "MG"
    },
    {
        "icao": "SNMA",
        "iata": "MTE",
        "name": "Aeroporto de Monte Alegre",
        "city": "Monte Alegre",
        "state": "Pará",
        "elevation": 325,
        "lat": -1.9958000183,
        "lon": -54.0741996765,
        "tz": "America/Santarem",
        "uf": "PA"
    },
    {
        "icao": "SNMU",
        "iata": "MVS",
        "name": "Aeroporto de Mucuri",
        "city": "Mucuri",
        "state": "Bahia",
        "elevation": 276,
        "lat": -18.0489006042,
        "lon": -39.864200592,
        "tz": "America/Fortaleza",
        "uf": "BH"
    },
    {
        "icao": "SNMX",
        "iata": "SBJ",
        "name": "Aeroporto de Sao Mateus",
        "city": "Sao Mateus",
        "state": "Espírito Santo",
        "elevation": 98,
        "lat": -18.7213001251,
        "lon": -39.8336982727,
        "tz": "America/Sao_Paulo",
        "uf": "ES"
    },
    {
        "icao": "SNMZ",
        "iata": "PTQ",
        "name": "Aeroporto de Porto de Moz",
        "city": "Porto De Moz",
        "state": "Pará",
        "elevation": 53,
        "lat": -1.7414499521,
        "lon": -52.2360992432,
        "tz": "America/Santarem",
        "uf": "PA"
    },
    {
        "icao": "SNNU",
        "iata": "NNU",
        "name": "Aeroporto de Nanuque",
        "city": "Nanuque",
        "state": "Minas Gerais",
        "elevation": 591,
        "lat": -17.823299408,
        "lon": -40.3298988342,
        "tz": "America/Sao_Paulo",
        "uf": "MG"
    },
    {
        "icao": "SNOB",
        "iata": "QBX",
        "name": "Aeroporto de Sobral",
        "city": "Sobral",
        "state": "Ceará",
        "elevation": 210,
        "lat": -3.6788899899,
        "lon": -40.3367996216,
        "tz": "America/Fortaleza",
        "uf": "CE"
    },
    {
        "icao": "SNOS",
        "iata": "PSW",
        "name": "Aeroporto Municipal Jose Figueiredo",
        "city": "Passos",
        "state": "Minas Gerais",
        "elevation": 2697,
        "lat": -20.7322006226,
        "lon": -46.6618003845,
        "tz": "America/Sao_Paulo",
        "uf": "MG"
    },
    {
        "icao": "SNOX",
        "iata": "ORX",
        "name": "Aeroporto de Oriximina",
        "city": "Oriximina",
        "state": "Pará",
        "elevation": 262,
        "lat": -1.7140799761,
        "lon": -55.8362007141,
        "tz": "America/Belem",
        "uf": "PA"
    },
    {
        "icao": "SNPC",
        "iata": "PCS",
        "name": "Aeroporto de Picos",
        "city": "Picos",
        "state": "Piauí",
        "elevation": 1050,
        "lat": -7.0620598793,
        "lon": -41.5237007141,
        "tz": "America/Fortaleza",
        "uf": "PI"
    },
    {
        "icao": "SNPD",
        "iata": "POJ",
        "name": "Aeroporto de Patos de Minas",
        "city": "Patos De Minas",
        "state": "Minas Gerais",
        "elevation": 2793,
        "lat": -18.6728000641,
        "lon": -46.4911994934,
        "tz": "America/Sao_Paulo",
        "uf": "MG"
    },
    {
        "icao": "SNPX",
        "iata": "PIV",
        "name": "Aeroporto de Pirapora",
        "city": "Pirapora",
        "state": "Minas Gerais",
        "elevation": 1808,
        "lat": -17.3169002533,
        "lon": -44.8602981567,
        "tz": "America/Sao_Paulo",
        "uf": "MG"
    },
    {
        "icao": "SNQG",
        "iata": "FLB",
        "name": "Aeroporto Cangapara",
        "city": "Floriano",
        "state": "Piauí",
        "elevation": 689,
        "lat": -6.8463897705,
        "lon": -43.0773010254,
        "tz": "America/Fortaleza",
        "uf": "PI"
    },
    {
        "icao": "SNRD",
        "iata": "PDF",
        "name": "Aeroporto de Prado",
        "city": "Prado",
        "state": "Bahia",
        "elevation": 66,
        "lat": -17.2966995239,
        "lon": -39.2711982727,
        "tz": "America/Bahia",
        "uf": "BH"
    },
    {
        "icao": "SNRU",
        "iata": "CAU",
        "name": "Aeroporto de Caruaru",
        "city": "Caruaru",
        "state": "Pernambuco",
        "elevation": 1891,
        "lat": -8.2823896408,
        "lon": -36.0135002136,
        "tz": "America/Fortaleza",
        "uf": "PE"
    },
    {
        "icao": "SNSW",
        "iata": "SFK",
        "name": "Aeroporto de Soure",
        "city": "Soure",
        "state": "Pará",
        "elevation": 43,
        "lat": -0.6994310021,
        "lon": -48.5209999084,
        "tz": "America/Belem",
        "uf": "PA"
    },
    {
        "icao": "SNTI",
        "iata": "OBI",
        "name": "Aeroporto de Obidos",
        "city": "Obidos",
        "state": "Pará",
        "elevation": 328,
        "lat": -1.8671699762,
        "lon": -55.5144004822,
        "tz": "America/Santarem",
        "uf": "PA"
    },
    {
        "icao": "SNTO",
        "iata": "TFL",
        "name": "Aeroporto Juscelino Kubitscheck",
        "city": "Teofilo Otoni",
        "state": "Minas Gerais",
        "elevation": 1572,
        "lat": -17.8922996521,
        "lon": -41.5135993958,
        "tz": "America/Sao_Paulo",
        "uf": "MG"
    },
    {
        "icao": "SNVB",
        "iata": "VAL",
        "name": "Aeroporto de Valenca",
        "city": "Valenca",
        "state": "Bahia",
        "elevation": 21,
        "lat": -13.296500206,
        "lon": -38.992401123,
        "tz": "America/Fortaleza",
        "uf": "BH"
    },
    {
        "icao": "SNVI",
        "iata": "QID",
        "name": "Aeroporto Melio Viana",
        "city": "Tres Coracoes",
        "state": "Minas Gerais",
        "elevation": 3232,
        "lat": -21.790599823,
        "lon": -45.2691993713,
        "tz": "America/Sao_Paulo",
        "uf": "MG"
    },
    {
        "icao": "SNVS",
        "iata": "BVS",
        "name": "Aeroporto de Breves",
        "city": "Breves",
        "state": "Pará",
        "elevation": 98,
        "lat": -1.6365300417,
        "lon": -50.4435997009,
        "tz": "America/Belem",
        "uf": "PA"
    },
    {
        "icao": "SNWC",
        "iata": "CMC",
        "name": "Aeroporto de Camocim",
        "city": "Camocim",
        "state": "Ceará",
        "elevation": 16,
        "lat": -2.8961799145,
        "lon": -40.858001709,
        "tz": "America/Fortaleza",
        "uf": "CE"
    },
    {
        "icao": "SNXS",
        "iata": "QXC",
        "name": "Aeroporto Fazenda Sao Braz",
        "city": "Barra De Santo Antonio",
        "state": "Alagoas",
        "elevation": 164,
        "lat": -9.3752775192,
        "lon": -35.5416679382,
        "tz": "America/Maceio",
        "uf": "AL"
    },
    {
        "icao": "SNYE",
        "iata": "PHI",
        "name": "Aeroporto de Pinheiro",
        "city": "Pinheiro",
        "state": "Maranhão",
        "elevation": 125,
        "lat": -2.4836111069,
        "lon": -45.0672225952,
        "tz": "America/Fortaleza",
        "uf": "MA"
    },
    {
        "icao": "SNYH",
        "iata": "ITI",
        "name": "Aeroporto de Cumaru do Norte",
        "city": "Cumaru Do Norte",
        "state": "Pará",
        "elevation": 1096,
        "lat": -8.6999998093,
        "lon": -51.1741676331,
        "tz": "America/Santarem",
        "uf": "PA"
    },
    {
        "icao": "SNZA",
        "iata": "PPY",
        "name": "Aeroporto de Pouso Alegre",
        "city": "Pouso Alegre",
        "state": "Minas Gerais",
        "elevation": 2904,
        "lat": -22.2891998291,
        "lon": -45.9191017151,
        "tz": "America/Sao_Paulo",
        "uf": "MG"
    },
    {
        "icao": "SSAP",
        "iata": "APU",
        "name": "Aeroporto de Apucarana",
        "city": "Apucarana",
        "state": "Paraná",
        "elevation": 2641,
        "lat": -23.609500885,
        "lon": -51.3844985962,
        "tz": "America/Sao_Paulo",
        "uf": "PR"
    },
    {
        "icao": "SSBG",
        "iata": "BGV",
        "name": "Aeroporto de Bento Gonçalves",
        "city": "Bento Goncalves",
        "state": "Rio Grande do Sul",
        "elevation": 2209,
        "lat": -29.1483325958,
        "lon": -51.5363883972,
        "tz": "America/Sao_Paulo",
        "uf": "RS"
    },
    {
        "icao": "SSBL",
        "iata": "BNU",
        "name": "Aeroporto de Blumenau",
        "city": "Blumenau",
        "state": "Santa Catarina",
        "elevation": 60,
        "lat": -26.8306007385,
        "lon": -49.0903015137,
        "tz": "America/Sao_Paulo",
        "uf": "SC"
    },
    {
        "icao": "SSCK",
        "iata": "CCI",
        "name": "Aeroporto de Concordia",
        "city": "Concordia",
        "state": "Santa Catarina",
        "elevation": 2461,
        "lat": -27.1805992126,
        "lon": -52.0527000427,
        "tz": "America/Sao_Paulo",
        "uf": "SC"
    },
    {
        "icao": "SSCN",
        "iata": "QCN",
        "name": "Aeroporto de Canela",
        "city": "Canela",
        "state": "Rio Grande do Sul",
        "elevation": 2723,
        "lat": -29.3701992035,
        "lon": -50.8320007324,
        "tz": "America/Sao_Paulo",
        "uf": "RS"
    },
    {
        "icao": "SSCP",
        "iata": "CKO",
        "name": "Aeroporto de Cornelio Procopio",
        "city": "Cornelio Procopio",
        "state": "Paraná",
        "elevation": 1854,
        "lat": -23.1525001526,
        "lon": -50.6025009155,
        "tz": "America/Sao_Paulo",
        "uf": "PR"
    },
    {
        "icao": "SSDO",
        "iata": "DOU",
        "name": "Aeroporto de Dourados",
        "city": "Dourados",
        "state": "Mato Grosso do Sul",
        "elevation": 1503,
        "lat": -22.2019004822,
        "lon": -54.9266014099,
        "tz": "America/Campo_Grande",
        "uf": "MS"
    },
    {
        "icao": "SSER",
        "iata": "ERM",
        "name": "Aeroporto de Erechim",
        "city": "Erechim",
        "state": "Rio Grande do Sul",
        "elevation": 2498,
        "lat": -27.6618995667,
        "lon": -52.2682991028,
        "tz": "America/Sao_Paulo",
        "uf": "RS"
    },
    {
        "icao": "SSFB",
        "iata": "FBE",
        "name": "Aeroporto de Francisco Beltrao",
        "city": "Francisco Beltrao",
        "state": "Paraná",
        "elevation": 2100,
        "lat": -26.0592002869,
        "lon": -53.0634994507,
        "tz": "America/Sao_Paulo",
        "uf": "PR"
    },
    {
        "icao": "SSGY",
        "iata": "QGA",
        "name": "Aeroporto de Guaira",
        "city": "Guaira",
        "state": "Paraná",
        "elevation": 889,
        "lat": -24.0811004639,
        "lon": -54.1916999817,
        "tz": "America/Sao_Paulo",
        "uf": "PR"
    },
    {
        "icao": "SSIJ",
        "iata": "IJU",
        "name": "Aeroporto de Ijui",
        "city": "Ijui",
        "state": "Rio Grande do Sul",
        "elevation": 1197,
        "lat": -28.3687000275,
        "lon": -53.8465995789,
        "tz": "America/Sao_Paulo",
        "uf": "RS"
    },
    {
        "icao": "SSIQ",
        "iata": "ITQ",
        "name": "Aeroporto de Itaqui",
        "city": "Itaqui",
        "state": "Rio Grande do Sul",
        "elevation": 230,
        "lat": -29.1730995178,
        "lon": -56.5367012024,
        "tz": "America/Sao_Paulo",
        "uf": "RS"
    },
    {
        "icao": "SSJA",
        "iata": "JCB",
        "name": "Aeroporto Santa Terezinha",
        "city": "Joacaba",
        "state": "Mato Grosso",
        "elevation": 2546,
        "lat": -27.1714000702,
        "lon": -51.5532989502,
        "tz": "America/Sao_Paulo",
        "uf": "MT"
    },
    {
        "icao": "SSKM",
        "iata": "CBW",
        "name": "Aeroporto de Campo Mourao",
        "city": "Campo Mourao",
        "state": "Paraná",
        "elevation": 1854,
        "lat": -24.0091991425,
        "lon": -52.3568000793,
        "tz": "America/Sao_Paulo",
        "uf": "PR"
    },
    {
        "icao": "SSKS",
        "iata": "QDB",
        "name": "Aeroporto de Cachoeira do Sul",
        "city": "Cachoeira Do Sul",
        "state": "Rio Grande do Sul",
        "elevation": 253,
        "lat": -30.0018997192,
        "lon": -52.9407997131,
        "tz": "America/Sao_Paulo",
        "uf": "RS"
    },
    {
        "icao": "SSKU",
        "iata": "QCR",
        "name": "Aeroporto de Curitibanos",
        "city": "Curitibanos",
        "state": "Santa Catarina",
        "elevation": 3133,
        "lat": -27.2824993134,
        "lon": -50.6114006042,
        "tz": "America/Sao_Paulo",
        "uf": "SC"
    },
    {
        "icao": "SSLT",
        "iata": "ALQ",
        "name": "Aeroporto de Alegrete Novo",
        "city": "Alegrete",
        "state": "Rio Grande do Sul",
        "elevation": 459,
        "lat": -29.8127002716,
        "lon": -55.8933982849,
        "tz": "America/Sao_Paulo",
        "uf": "RS"
    },
    {
        "icao": "SSMF",
        "iata": "QMF",
        "name": "Aeroporto de Mafra",
        "city": "Mafra",
        "state": "Santa Catarina",
        "elevation": 2690,
        "lat": -26.1588993073,
        "lon": -49.8321990967,
        "tz": "America/Sao_Paulo",
        "uf": "SC"
    },
    {
        "icao": "SSNG",
        "iata": "QGF",
        "name": "Aeroporto de Montenegro",
        "city": "Montenegro",
        "state": "Rio Grande do Sul",
        "elevation": 125,
        "lat": -29.7194004059,
        "lon": -51.4893989563,
        "tz": "America/Sao_Paulo",
        "uf": "RS"
    },
    {
        "icao": "SSNH",
        "iata": "QHV",
        "name": "Aeroporto de Novo Hamburgo",
        "city": "Novo Hamburgo",
        "state": "Rio Grande do Sul",
        "elevation": 66,
        "lat": -29.696100235,
        "lon": -51.0816993713,
        "tz": "America/Sao_Paulo",
        "uf": "RS"
    },
    {
        "icao": "SSOE",
        "iata": "SQX",
        "name": "Aeroporto de Sao Miguel do Oeste",
        "city": "Sao Miguel Do Oeste",
        "state": "Santa Catarina",
        "elevation": 2180,
        "lat": -26.7816009521,
        "lon": -53.5035018921,
        "tz": "America/Sao_Paulo",
        "uf": "SC"
    },
    {
        "icao": "SSOG",
        "iata": "APX",
        "name": "Aeroporto de Arapongas",
        "city": "Arapongas",
        "state": "Paraná",
        "elevation": 2599,
        "lat": -23.3528995514,
        "lon": -51.4916992188,
        "tz": "America/Sao_Paulo",
        "uf": "PR"
    },
    {
        "icao": "SSPB",
        "iata": "PTO",
        "name": "Aeroporto de Pato Branco",
        "city": "Pato Branco",
        "state": "Paraná",
        "elevation": 2697,
        "lat": -26.2178001404,
        "lon": -52.6943016052,
        "tz": "America/Sao_Paulo",
        "uf": "PR"
    },
    {
        "icao": "SSPG",
        "iata": "PNG",
        "name": "Aeroporto de Paranagua",
        "city": "Paranagua",
        "state": "Paraná",
        "elevation": 16,
        "lat": -25.5401000977,
        "lon": -48.5312004089,
        "tz": "America/Sao_Paulo",
        "uf": "PR"
    },
    {
        "icao": "SSPI",
        "iata": "PVI",
        "name": "Aeroporto de Paranavai",
        "city": "Paranavai",
        "state": "Paraná",
        "elevation": 1526,
        "lat": -23.0898990631,
        "lon": -52.4884986877,
        "tz": "America/Sao_Paulo",
        "uf": "PR"
    },
    {
        "icao": "SSPN",
        "iata": "PBB",
        "name": "Aeroporto de Paranaiba",
        "city": "Paranaiba",
        "state": "Mato Grosso do Sul",
        "elevation": 1446,
        "lat": -19.6511993408,
        "lon": -51.1994018555,
        "tz": "America/Campo_Grande",
        "uf": "MS"
    },
    {
        "icao": "SSQT",
        "iata": "QAC",
        "name": "Aeroporto de Castro",
        "city": "Castro",
        "state": "Paraná",
        "elevation": 3314,
        "lat": -24.8075008392,
        "lon": -49.9603004456,
        "tz": "America/Sao_Paulo",
        "uf": "PR"
    },
    {
        "icao": "SSRU",
        "iata": "SQY",
        "name": "Aeroporto de Sao Lourenco do Sul",
        "city": "Sao Lourenco Do Sul",
        "state": "Rio Grande do Sul",
        "elevation": 28,
        "lat": -31.3833007813,
        "lon": -52.0327987671,
        "tz": "America/Sao_Paulo",
        "uf": "RS"
    },
    {
        "icao": "SSSB",
        "iata": "QOJ",
        "name": "Aeroporto de Sao Borja",
        "city": "Sao Borja",
        "state": "Rio Grande do Sul",
        "elevation": 246,
        "lat": -28.6548995972,
        "lon": -56.0345993042,
        "tz": "America/Sao_Paulo",
        "uf": "RS"
    },
    {
        "icao": "SSSC",
        "iata": "CSU",
        "name": "Aeroporto de Santa Cruz do Sul",
        "city": "Santa Cruz Do Sul",
        "state": "Rio Grande do Sul",
        "elevation": 646,
        "lat": -29.6840991974,
        "lon": -52.4122009277,
        "tz": "America/Sao_Paulo",
        "uf": "RS"
    },
    {
        "icao": "SSUM",
        "iata": "UMU",
        "name": "Aeroporto de Umuarama",
        "city": "Umuarama",
        "state": "Paraná",
        "elevation": 1558,
        "lat": -23.7987003326,
        "lon": -53.3138008118,
        "tz": "America/Sao_Paulo",
        "uf": "PR"
    },
    {
        "icao": "SSUV",
        "iata": "QVB",
        "name": "Aeroporto de Uniao da Vitoria",
        "city": "Uniao Da Vitoria",
        "state": "Santa Catarina",
        "elevation": 2467,
        "lat": -26.2334003448,
        "lon": -51.0677986145,
        "tz": "America/Sao_Paulo",
        "uf": "SC"
    },
    {
        "icao": "SSVI",
        "iata": "VIA",
        "name": "Aeroporto de Videira",
        "city": "Videira",
        "state": "Santa Catarina",
        "elevation": 2756,
        "lat": -26.9997005463,
        "lon": -51.1418991089,
        "tz": "America/Sao_Paulo",
        "uf": "SC"
    },
    {
        "icao": "SSVP",
        "iata": "CTQ",
        "name": "Aeroporto de Santa Vitoria do Palmar",
        "city": "Santa Vitoria Do Palmar",
        "state": "Rio Grande do Sul",
        "elevation": 82,
        "lat": -33.5022239685,
        "lon": -53.344165802,
        "tz": "America/Sao_Paulo",
        "uf": "RS"
    },
    {
        "icao": "SSXX",
        "iata": "AXE",
        "name": "Aeroporto de Xanxere",
        "city": "Xanxere",
        "state": "Santa Catarina",
        "elevation": 2986,
        "lat": -26.8755569458,
        "lon": -52.3730545044,
        "tz": "America/Sao_Paulo",
        "uf": "SC"
    },
    {
        "icao": "SSYA",
        "iata": "AAG",
        "name": "Aeroporto de Arapoti",
        "city": "Arapoti",
        "state": "Paraná",
        "elevation": 2641,
        "lat": -24.1039009094,
        "lon": -49.789100647,
        "tz": "America/Sao_Paulo",
        "uf": "PR"
    },
    {
        "icao": "SSZR",
        "iata": "SRA",
        "name": "Aeroporto de Santa Rosa",
        "city": "Santa Rosa",
        "state": "Rio Grande do Sul",
        "elevation": 984,
        "lat": -27.9067001343,
        "lon": -54.520401001,
        "tz": "America/Sao_Paulo",
        "uf": "RS"
    },
    {
        "icao": "SSZW",
        "iata": "PGZ",
        "name": "Aeroporto de Ponta Grossa",
        "city": "Ponta Grossa",
        "state": "Paraná",
        "elevation": 2588,
        "lat": -25.1847000122,
        "lon": -50.1441001892,
        "tz": "America/Sao_Paulo",
        "uf": "PR"
    },
    {
        "icao": "SWBC",
        "iata": "BAZ",
        "name": "Aeroporto de Barcelos",
        "city": "Barcelos",
        "state": "Amazonas",
        "elevation": 112,
        "lat": -0.9812920094,
        "lon": -62.9196014404,
        "tz": "America/Boa_Vista",
        "uf": "AM"
    },
    {
        "icao": "SWBR",
        "iata": "RBB",
        "name": "Aeroporto de Borba",
        "city": "Borba",
        "state": "Amazonas",
        "elevation": 293,
        "lat": -4.4063401222,
        "lon": -59.6024017334,
        "tz": "America/Boa_Vista",
        "uf": "AM"
    },
    {
        "icao": "SWCA",
        "iata": "CAF",
        "name": "Aeroporto de Carauari",
        "city": "Carauari",
        "state": "Amazonas",
        "elevation": 355,
        "lat": -4.8715200424,
        "lon": -66.8974990845,
        "tz": "America/Boa_Vista",
        "uf": "AM"
    },
    {
        "icao": "SWCQ",
        "iata": "CQS",
        "name": "Aeroporto de Costa Marques",
        "city": "Costa Marques",
        "state": "Rondônia",
        "elevation": 555,
        "lat": -12.4210996628,
        "lon": -64.2516021729,
        "tz": "America/Porto_Velho",
        "uf": "RO"
    },
    {
        "icao": "SWDM",
        "iata": "DMT",
        "name": "Aeroporto de Diamantino",
        "city": "Diamantino",
        "state": "Mato Grosso",
        "elevation": 1476,
        "lat": -14.3768997192,
        "lon": -56.4003982544,
        "tz": "America/Campo_Grande",
        "uf": "MT"
    },
    {
        "icao": "SWDN",
        "iata": "DNO",
        "name": "Aeroporto de Dianopolis",
        "city": "Dianopolis",
        "state": "Tocantins",
        "elevation": 2001,
        "lat": -11.5953998566,
        "lon": -46.846698761,
        "tz": "America/Araguaina",
        "uf": "TO"
    },
    {
        "icao": "SWEI",
        "iata": "ERN",
        "name": "Aeroporto de Eirunepe",
        "city": "Eirunepe",
        "state": "Amazonas",
        "elevation": 412,
        "lat": -6.6395301819,
        "lon": -69.8797988892,
        "tz": "America/Boa_Vista",
        "uf": "AM"
    },
    {
        "icao": "SWEK",
        "iata": "CQA",
        "name": "Aeroporto de Canarana",
        "city": "Canarana",
        "state": "Mato Grosso",
        "elevation": 1314,
        "lat": -13.5744438171,
        "lon": -52.2705574036,
        "tz": "America/Cuiaba",
        "uf": "MT"
    },
    {
        "icao": "SWFJ",
        "iata": "FEJ",
        "name": "Aeroporto de Feijo",
        "city": "Feijo",
        "state": "Acre",
        "elevation": 394,
        "lat": -8.1655797958,
        "lon": -70.3529968262,
        "tz": "America/Rio_Branco",
        "uf": "AC"
    },
    {
        "icao": "SWFX",
        "iata": "SXO",
        "name": "Aeroporto de Sao Felix do Araguaia",
        "city": "Sao Felix Do Araguaia",
        "state": "Mato Grosso",
        "elevation": 650,
        "lat": -11.632399559,
        "lon": -50.6896018982,
        "tz": "America/Campo_Grande",
        "uf": "MT"
    },
    {
        "icao": "SWGI",
        "iata": "GRP",
        "name": "Aeroporto de Gurupi",
        "city": "Gurupi",
        "state": "Tocantins",
        "elevation": 1148,
        "lat": -11.7396001816,
        "lon": -49.1321983337,
        "tz": "America/Fortaleza",
        "uf": "TO"
    },
    {
        "icao": "SWGN",
        "iata": "AUX",
        "name": "Aeroporto de Araguaina",
        "city": "Araguaina",
        "state": "Tocantins",
        "elevation": 771,
        "lat": -7.2278699875,
        "lon": -48.2405014038,
        "tz": "America/Fortaleza",
        "uf": "TO"
    },
    {
        "icao": "SWII",
        "iata": "IPG",
        "name": "Aeroporto Ipiranga",
        "city": "Santo Antonio Do Ica",
        "state": "Amazonas",
        "elevation": 131,
        "lat": -2.9390699863,
        "lon": -69.6940002441,
        "tz": "America/Manaus",
        "uf": "AM"
    },
    {
        "icao": "SWIY",
        "iata": "IDO",
        "name": "Aeroporto Santa Izabel do Morro",
        "city": "Cristalandia",
        "state": "Tocantins",
        "elevation": 647,
        "lat": -11.5722999573,
        "lon": -50.6661987305,
        "tz": "America/Araguaina",
        "uf": "TO"
    },
    {
        "icao": "SWJI",
        "iata": "JPR",
        "name": "Aeroporto de Ji-Parana",
        "city": "Ji-Parana",
        "state": "Rondônia",
        "elevation": 598,
        "lat": -10.8708000183,
        "lon": -61.8465003967,
        "tz": "America/Boa_Vista",
        "uf": "RO"
    },
    {
        "icao": "SWJN",
        "iata": "JIA",
        "name": "Aeroporto de Juina",
        "city": "Juina",
        "state": "Mato Grosso",
        "elevation": 1083,
        "lat": -11.4194440842,
        "lon": -58.7016677856,
        "tz": "America/Cuiaba",
        "uf": "MT"
    },
    {
        "icao": "SWJU",
        "iata": "JRN",
        "name": "Aeroporto de Juruena",
        "city": "Juruena",
        "state": "Mato Grosso",
        "elevation": 525,
        "lat": -10.3058328629,
        "lon": -58.4894447327,
        "tz": "America/Cuiaba",
        "uf": "MT"
    },
    {
        "icao": "SWKC",
        "iata": "CCX",
        "name": "Aeroporto de Caceres",
        "city": "Caceres",
        "state": "Mato Grosso",
        "elevation": 492,
        "lat": -16.0436000824,
        "lon": -57.629901886,
        "tz": "America/Cuiaba",
        "uf": "MT"
    },
    {
        "icao": "SWKO",
        "iata": "CIZ",
        "name": "Aeroporto de Coari",
        "city": "Coari",
        "state": "Amazonas",
        "elevation": 131,
        "lat": -4.134059906,
        "lon": -63.132598877,
        "tz": "America/Boa_Vista",
        "uf": "AM"
    },
    {
        "icao": "SWKT",
        "iata": "TLZ",
        "name": "Aeroporto de Catalao",
        "city": "Catalao",
        "state": "Goiás",
        "elevation": 2612,
        "lat": -18.2168006897,
        "lon": -47.8997001648,
        "tz": "America/Sao_Paulo",
        "uf": "GO"
    },
    {
        "icao": "SWLB",
        "iata": "LBR",
        "name": "Aeroporto de Labrea",
        "city": "Labrea",
        "state": "Amazonas",
        "elevation": 190,
        "lat": -7.2789697647,
        "lon": -64.7695007324,
        "tz": "America/Boa_Vista",
        "uf": "AM"
    },
    {
        "icao": "SWLC",
        "iata": "RVD",
        "name": "Aeroporto General Leite de Castro",
        "city": "Rio Verde",
        "state": "Goiás",
        "elevation": 2464,
        "lat": -17.8347225189,
        "lon": -50.956111908,
        "tz": "America/Sao_Paulo",
        "uf": "GO"
    },
    {
        "icao": "SWMW",
        "iata": "MBZ",
        "name": "Aeroporto de Maues",
        "city": "Maues",
        "state": "Amazonas",
        "elevation": 69,
        "lat": -3.3721699715,
        "lon": -57.7248001099,
        "tz": "America/Boa_Vista",
        "uf": "AM"
    },
    {
        "icao": "SWNA",
        "iata": "NVP",
        "name": "Aeroporto de Novo Aripuana",
        "city": "Novo Aripuana",
        "state": "Amazonas",
        "elevation": 118,
        "lat": -5.1180300713,
        "lon": -60.3648986816,
        "tz": "America/Boa_Vista",
        "uf": "AM"
    },
    {
        "icao": "SWNI",
        "iata": "AQM",
        "name": "Aeroporto Nova Vida",
        "city": "Ariquemes",
        "state": "Rondônia",
        "elevation": 410,
        "lat": -10.1780557632,
        "lon": -62.8255577087,
        "tz": "America/Porto_Velho",
        "uf": "RO"
    },
    {
        "icao": "SWNK",
        "iata": "BCR",
        "name": "Aeroporto Novo Campo",
        "city": "Boca Do Acre",
        "state": "Amazonas",
        "elevation": 394,
        "lat": -8.8345603943,
        "lon": -67.3124008179,
        "tz": "America/Manaus",
        "uf": "AM"
    },
    {
        "icao": "SWNQ",
        "iata": "NQL",
        "name": "Aeroporto de Niquelandia",
        "city": "Niquelandia",
        "state": "Goiás",
        "elevation": 2756,
        "lat": -14.4349002838,
        "lon": -48.4915008545,
        "tz": "America/Sao_Paulo",
        "uf": "GO"
    },
    {
        "icao": "SWNS",
        "iata": "APS",
        "name": "Aeroporto de Anapolis",
        "city": "Anapolis",
        "state": "Goiás",
        "elevation": 3648,
        "lat": -16.3623008728,
        "lon": -48.9271011353,
        "tz": "America/Sao_Paulo",
        "uf": "GO"
    },
    {
        "icao": "SWOB",
        "iata": "FBA",
        "name": "Aeroporto de Fonte Boa",
        "city": "Fonte Boa",
        "state": "Amazonas",
        "elevation": 207,
        "lat": -2.5326099396,
        "lon": -66.0831985474,
        "tz": "America/Boa_Vista",
        "uf": "AM"
    },
    {
        "icao": "SWPI",
        "iata": "PIN",
        "name": "Aeroporto de Parintins",
        "city": "Parintins",
        "state": "Amazonas",
        "elevation": 87,
        "lat": -2.673019886,
        "lon": -56.7771987915,
        "tz": "America/Boa_Vista",
        "uf": "AM"
    },
    {
        "icao": "SWPM",
        "iata": "PBQ",
        "name": "Aeroporto de Pimenta Bueno",
        "city": "Pimenta Bueno",
        "state": "Rondônia",
        "elevation": 682,
        "lat": -11.6415996552,
        "lon": -61.1791000366,
        "tz": "America/Porto_Velho",
        "uf": "RO"
    },
    {
        "icao": "SWRA",
        "iata": "AAI",
        "name": "Aeroporto de Arraias",
        "city": "Arraias",
        "state": "Tocantins",
        "elevation": 1923,
        "lat": -13.023888588,
        "lon": -46.8855552673,
        "tz": "America/Araguaina",
        "uf": "TO"
    },
    {
        "icao": "SWRD",
        "iata": "ROO",
        "name": "Aeroporto de Rondonopolis",
        "city": "Rondonopolis",
        "state": "Mato Grosso",
        "elevation": 1467,
        "lat": -16.5860004425,
        "lon": -54.7248001099,
        "tz": "America/Cuiaba",
        "uf": "MT"
    },
    {
        "icao": "SWRP",
        "iata": "AIR",
        "name": "Aeroporto de Aripuana",
        "city": "Aripuana",
        "state": "Mato Grosso",
        "elevation": 623,
        "lat": -10.2502775192,
        "lon": -59.3838882446,
        "tz": "America/Cuiaba",
        "uf": "MT"
    },
    {
        "icao": "SWSI",
        "iata": "OPS",
        "name": "Aeroporto Presidente Joao Batista Figueiredo",
        "city": "Sinop",
        "state": "Mato Grosso",
        "elevation": 1227,
        "lat": -11.8850002289,
        "lon": -55.5861091614,
        "tz": "America/Campo_Grande",
        "uf": "MT"
    },
    {
        "icao": "SWST",
        "iata": "STZ",
        "name": "Aeroporto de Santa Terezinha",
        "city": "Santa Terezinha",
        "state": "Tocantins",
        "elevation": 663,
        "lat": -10.4647216797,
        "lon": -50.518611908,
        "tz": "America/Araguaina",
        "uf": "TO"
    },
    {
        "icao": "SWTP",
        "iata": "IRZ",
        "name": "Aeroporto Tapuruquara",
        "city": "Santa Isabel Do Rio Negro",
        "state": "Amazonas",
        "elevation": 223,
        "lat": -0.4169439971,
        "lon": -65.0338897705,
        "tz": "America/Manaus",
        "uf": "AM"
    },
    {
        "icao": "SWTS",
        "iata": "TGQ",
        "name": "Aeroporto de Tangara da Serra",
        "city": "Tangara Da Serra",
        "state": "Mato Grosso",
        "elevation": 1460,
        "lat": -14.6619997025,
        "lon": -57.4435005188,
        "tz": "America/Cuiaba",
        "uf": "MT"
    },
    {
        "icao": "SWTU",
        "iata": "AZL",
        "name": "Aeroporto Fazenda Tucunare",
        "city": "Sapezal",
        "state": "Mato Grosso",
        "elevation": 1814,
        "lat": -13.4655278136,
        "lon": -58.8669347763,
        "tz": "America/Cuiaba",
        "uf": "MT"
    },
    {
        "icao": "SWTY",
        "iata": "QHN",
        "name": "Aeroporto de Taguatinga",
        "city": "Taguatinga",
        "state": "Tocantins",
        "elevation": 1959,
        "lat": -12.433889389,
        "lon": -46.400554657,
        "tz": "America/Araguaina",
        "uf": "TO"
    },
    {
        "icao": "SWUA",
        "iata": "SQM",
        "name": "Aeroporto de Sao Miguel do Araguaia",
        "city": "Sao Miguel Do Araguaia",
        "state": "Goiás",
        "elevation": 1249,
        "lat": -13.3312997818,
        "lon": -50.1976013184,
        "tz": "America/Sao_Paulo",
        "uf": "GO"
    },
    {
        "icao": "SWVC",
        "iata": "VLP",
        "name": "Aeroporto de Vila Rica",
        "city": "Vila Rica",
        "state": "Mato Grosso",
        "elevation": 892,
        "lat": -9.9794435501,
        "lon": -51.1422233582,
        "tz": "America/Cuiaba",
        "uf": "MT"
    },
    {
        "icao": "SWXM",
        "iata": "MBK",
        "name": "Aeroporto Regional Orlando Villas Boas",
        "city": "Matupa",
        "state": "Mato Grosso",
        "elevation": 886,
        "lat": -10.1702775955,
        "lon": -54.9527778625,
        "tz": "America/Cuiaba",
        "uf": "MT"
    },
    {
        "icao": "SWXV",
        "iata": "NOK",
        "name": "Aeroporto Xavantina",
        "city": "Nova Xavantina",
        "state": "Mato Grosso",
        "elevation": 1035,
        "lat": -14.6983003616,
        "lon": -52.3464012146,
        "tz": "America/Cuiaba",
        "uf": "MT"
    }
]